stop_id,stop_name,stop_desc,stop_lat,stop_lon,stop_url,location_type,parent_station,wheelchair_boarding
J22214ASH01,しずてつストア岡部店前,藤枝市,34.9057699,138.2837909,,1,,0
J22214ASH01_0,しずてつストア岡部店前,藤枝市,34.9057699,138.2837909,,0,J22214ASH01,0
J22214ASH01_1,しずてつストア岡部店前,藤枝市,34.9057799,138.2838109,,0,J22214ASH01,0
J22214ASH02,岡部小学校前,藤枝市,34.9098172,138.2844078,,1,,0
J22214ASH02_e,岡部小学校前e,藤枝市,34.9098172,138.2844078,,0,J22214ASH02,0
J22214ASH02_w,岡部小学校前w,藤枝市,34.9099888,138.2839626,,0,J22214ASH02,0
J22214ASH03,藤枝市岡部支所前,藤枝市,34.9099052,138.2807117,,1,,0
J22214ASH03_e,藤枝市岡部支所前e,藤枝市,34.9104111,138.2806742,,0,J22214ASH03,0
J22214ASH03_w,藤枝市岡部支所前w,藤枝市,34.9099052,138.2807117,,0,J22214ASH03,0
J22214ASH04,若宮神社前,藤枝市,34.9083479,138.27914,,1,,0
J22214ASH04_n,若宮神社前n,藤枝市,34.9084622,138.2791454,,0,J22214ASH04,0
J22214ASH04_s,若宮神社前s,藤枝市,34.9083479,138.27914,,0,J22214ASH04,0
J22214ASH05,子持坂,藤枝市,34.9108422,138.2712597,,1,,0
J22214ASH05_e,子持坂e,藤枝市,34.9110402,138.271265,,0,J22214ASH05,0
J22214ASH05_w,子持坂w,藤枝市,34.9108422,138.2712597,,0,J22214ASH05,0
J22214ASH06,岡部中学入口,藤枝市,34.9128965,138.2700527,,1,,0
J22214ASH06_e,岡部中学入口e,藤枝市,34.9129581,138.2701439,,0,J22214ASH06,0
J22214ASH06_w,岡部中学入口w,藤枝市,34.9128965,138.2700527,,0,J22214ASH06,0
J22214ASH07,村良,藤枝市,34.9179419,138.2694197,,1,,0
J22214ASH07_e,村良e,藤枝市,34.9180827,138.2695699,,0,J22214ASH07,0
J22214ASH07_w,村良w,藤枝市,34.9179419,138.2694197,,0,J22214ASH07,0
J22214ASH08,兎島,藤枝市,34.92321,138.27129,,1,,0
J22214ASH08_e,兎島e,藤枝市,34.9234489,138.2713938,,0,J22214ASH08,0
J22214ASH08_w,兎島w,藤枝市,34.92321,138.27129,,0,J22214ASH08,0
J22214ASH09,谷川口,藤枝市,34.9284101,138.271544,,1,,0
J22214ASH09_e,谷川口e,藤枝市,34.9286388,138.2715172,,0,J22214ASH09,0
J22214ASH09_w,谷川口w,藤枝市,34.9284101,138.271544,,0,J22214ASH09,0
J22214ASH10,関谷橋,藤枝市,34.9307543,138.2683951,,1,,0
J22214ASH10_e,関谷橋e,藤枝市,34.9309038,138.2684434,,0,J22214ASH10,0
J22214ASH10_w,関谷橋w,藤枝市,34.9307543,138.2683951,,0,J22214ASH10,0
J22214ASH11,桂島,藤枝市,34.9332479,138.2645809,,1,,0
J22214ASH11_e,桂島e,藤枝市,34.9332479,138.2645809,,0,J22214ASH11,0
J22214ASH11_w,桂島w,藤枝市,34.9332567,138.2644469,,0,J22214ASH11,0
J22214ASH12,もくせいの家,藤枝市,34.939154,138.2596993,,1,,0
J22214ASH12_e,もくせいの家e,藤枝市,34.9393651,138.2597154,,0,J22214ASH12,0
J22214ASH12_w,もくせいの家w,藤枝市,34.939154,138.2596993,,0,J22214ASH12,0
J22214ASH13,羽佐間,藤枝市,34.9409262,138.2590771,,1,,0
J22214ASH13_e,羽佐間e,藤枝市,34.9410362,138.2591469,,0,J22214ASH13,0
J22214ASH13_w,羽佐間w,藤枝市,34.9409262,138.2590771,,0,J22214ASH13,0
J22214ASH14,羽佐間橋,藤枝市,34.9435558,138.2582188,,1,,0
J22214ASH14_e,羽佐間橋e,藤枝市,34.9435954,138.258428,,0,J22214ASH14,0
J22214ASH14_w,羽佐間橋w,藤枝市,34.9435558,138.2582188,,0,J22214ASH14,0
J22214ASH15,殿橋,藤枝市,34.9479135,138.2579988,,1,,0
J22214ASH15_n,殿橋n,藤枝市,34.9481025,138.2574141,,0,J22214ASH15,0
J22214ASH15_s,殿橋s,藤枝市,34.9479135,138.2579988,,0,J22214ASH15,0
J22214ASH16,殿,藤枝市,34.9484807,138.2551289,,1,,0
J22214ASH16_n,殿n,藤枝市,34.9486741,138.2549143,,0,J22214ASH16,0
J22214ASH16_s,殿s,藤枝市,34.9484807,138.2551289,,0,J22214ASH16,0
J22214ASH17,玉露の里,藤枝市,34.9505868,138.251363,,1,,0
J22214ASH17_e,玉露の里e,藤枝市,34.9508287,138.2512772,,0,J22214ASH17,0
J22214ASH17_w,玉露の里w,藤枝市,34.9505868,138.251363,,0,J22214ASH17,0
J22214ASH18,朝比奈第一小学校入口,藤枝市,34.9514486,138.2505584,,1,,0
J22214ASH18_e,朝比奈第一小学校入口e,藤枝市,34.9515629,138.2505959,,0,J22214ASH18,0
J22214ASH18_w,朝比奈第一小学校入口w,藤枝市,34.9514486,138.2505584,,0,J22214ASH18,0
J22214ASH19,新舟,藤枝市,34.9557267,138.2484609,,1,,0
J22214ASH19_e,新舟e,藤枝市,34.9560169,138.2484019,,0,J22214ASH19,0
J22214ASH19_w,新舟w,藤枝市,34.9557267,138.2484609,,0,J22214ASH19,0
J22214ASH20,宮島下,藤枝市,34.9589229,138.2501829,,1,,0
J22214ASH20_n,宮島下n,藤枝市,34.9591076,138.249625,,0,J22214ASH20,0
J22214ASH20_s,宮島下s,藤枝市,34.9589229,138.2501829,,0,J22214ASH20,0
J22214ASH21,宮島中,藤枝市,34.96061,138.25273,,1,,0
J22214ASH21_e,宮島中e,藤枝市,34.9607299,138.2529241,,0,J22214ASH21,0
J22214ASH21_w,宮島中w,藤枝市,34.96061,138.25273,,0,J22214ASH21,0
J22214ASH22,宮島,藤枝市,34.9624884,138.2532406,,1,,0
J22214ASH22_e,宮島e,藤枝市,34.9625807,138.253321,,0,J22214ASH22,0
J22214ASH22_w,宮島w,藤枝市,34.9624884,138.2532406,,0,J22214ASH22,0
J22214ASH23,清養寺前,藤枝市,34.9669945,138.2541418,,1,,0
J22214ASH23_e,清養寺前e,藤枝市,34.967078,138.2542813,,0,J22214ASH23,0
J22214ASH23_w,清養寺前w,藤枝市,34.9669945,138.2541418,,0,J22214ASH23,0
J22214ASH24,小園下,藤枝市,34.9690079,138.2543832,,1,,0
J22214ASH24_e,小園下e,藤枝市,34.96915,138.25446,,0,J22214ASH24,0
J22214ASH24_w,小園下w,藤枝市,34.9690079,138.2543832,,0,J22214ASH24,0
J22214ASH25,小園,藤枝市,34.9717245,138.2530206,,1,,0
J22214ASH25_n,小園n,藤枝市,34.9718564,138.2528436,,0,J22214ASH25,0
J22214ASH25_s,小園s,藤枝市,34.9717245,138.2530206,,0,J22214ASH25,0
J22214ASH26,近又,藤枝市,34.9753158,138.2465512,,1,,0
J22214ASH26_n,近又n,藤枝市,34.9754784,138.2464278,,0,J22214ASH26,0
J22214ASH26_s,近又s,藤枝市,34.9753158,138.2465512,,0,J22214ASH26,0
J22214ASH27,玉取,藤枝市,34.9820979,138.2490993,,1,,0
J22214ASH27_n,玉取n,藤枝市,34.9821507,138.2489437,,0,J22214ASH27,0
J22214ASH27_s,玉取s,藤枝市,34.9820979,138.2490993,,0,J22214ASH27,0
J22214ASH28,公民舘前,藤枝市,34.9860096,138.2522911,,1,,0
J22214ASH28_e,公民館前e,藤枝市,34.9861019,138.2524252,,0,J22214ASH28,0
J22214ASH28_w,公民舘前w,藤枝市,34.9860096,138.2522911,,0,J22214ASH28,0
J22214ASH29,玉取沢,藤枝市,34.9879566,138.254292,,1,,0
J22214ASH29_n,玉取沢n,藤枝市,34.9880093,138.2541579,,0,J22214ASH29,0
J22214ASH29_s,玉取沢s,藤枝市,34.9879566,138.254292,,0,J22214ASH29,0
J22214ASH30,山中入口,藤枝市,34.9910593,138.2558262,,1,,0
J22214ASH30_e,山中入口e,藤枝市,34.9910593,138.2558262,,0,J22214ASH30,0
J22214ASH30_w,山中入口w,藤枝市,34.9912,138.2557189,,0,J22214ASH30,0
J22214ASH31,小布杉中,藤枝市,34.9936873,138.2479405,,1,,0
J22214ASH31_n,小布杉中n,藤枝市,34.9937533,138.2478493,,0,J22214ASH31,0
J22214ASH31_s,小布杉中s,藤枝市,34.9936873,138.2479405,,0,J22214ASH31,0
J22214ASH32,小布杉,藤枝市,34.998864,138.2424688,,1,,0
J22214ASH32_0,小布杉,藤枝市,34.998864,138.2424688,,0,J22214ASH32,0
J22214ASH32_1,小布杉,藤枝市,34.998874,138.2424888,,0,J22214ASH32,0
J22214FSZ0_3,富士山静岡空港3,,34.7947814,138.1801611,,0,J22214FSZ03,0
J22214FSZ02,空港南,,34.7859528,138.1830257,,1,,0
J22214FSZ02_0,空港南,,34.7859528,138.1830257,,0,J22214FSZ02,0
J22214FSZ03,富士山静岡空港,,34.7946426,138.1806117,,1,,0
J22214OKB01,大久保,藤枝市,34.953238,138.166503,,1,,0
J22214OKB01_0,大久保0,藤枝市,34.953238,138.166503,,0,J22214OKB01,0
J22214OKB02,中島,藤枝市,34.960497,138.166342,,1,,0
J22214OKB02_e,中島e,藤枝市,34.9604969,138.1666964,,0,J22214OKB02,0
J22214OKB02_w,中島w,藤枝市,34.960497,138.166342,,0,J22214OKB02,0
J22214OKB03,前田,藤枝市,34.962163,138.170012,,1,,0
J22214OKB03_n,前田n,藤枝市,34.962163,138.170012,,0,J22214OKB03,0
J22214OKB03_s,前田s,藤枝市,34.9619785,138.1700009,,0,J22214OKB03,0
J22214OKB04,谷の奥平,藤枝市,34.963438,138.172506,,1,,0
J22214OKB04_n,谷の奥平n,藤枝市,34.963438,138.172506,,0,J22214OKB04,0
J22214OKB04_s,谷の奥平s,藤枝市,34.9633149,138.1726456,,0,J22214OKB04,0
J22214OKB05,上平,藤枝市,34.962754,138.178133,,1,,0
J22214OKB05_n,上平n,藤枝市,34.962754,138.178133,,0,J22214OKB05,0
J22214OKB05_s,上平s,藤枝市,34.9626599,138.1781387,,0,J22214OKB05,0
J22214OKB06,大久保キャンプ場,藤枝市,34.964168,138.17971,,1,,0
J22214OKB06_n,大久保キャンプ場n,藤枝市,34.964168,138.17971,,0,J22214OKB06,0
J22214OKB06_s,大久保キャンプ場s,藤枝市,34.9640139,138.1798178,,0,J22214OKB06,0
J22214OKB07,スポーツ・パル前,藤枝市,34.9656317,138.1905413,,1,,0
J22214OKB07_e,スポーツ・パル前e,藤枝市,34.9656317,138.1905413,,0,J22214OKB07,0
J22214OKB07_w,スポーツ・パル前w,藤枝市,34.96557,138.19005,,0,J22214OKB07,0
J22214OKB08,蔵田,藤枝市,34.9741817,138.1970644,,1,,0
J22214OKB08_e,蔵田e,藤枝市,34.97418,138.19718,,0,J22214OKB08,0
J22214OKB09,落合ダム入口,藤枝市,34.9731751,138.2111675,,1,,0
J22214OKB09_e,落合ダム入口e,藤枝市,34.9730942,138.2113153,,0,J22214OKB09,0
J22214OKB09_w,落合ダム入口w,藤枝市,34.9731751,138.2111675,,0,J22214OKB09,0
J22214OKB10,びく石登山口,藤枝市,34.9674385,138.2125783,,1,,0
J22214OKB10_e,びく石登山口e,藤枝市,34.967421,138.21267,,0,J22214OKB10,0
J22214OKB10_w,びく石登山口w,藤枝市,34.9674385,138.2125783,,0,J22214OKB10,0
J22214OKB11,市の瀬,藤枝市,34.965537,138.212409,,1,,0
J22214OKB11_e,市の瀬e,藤枝市,34.965537,138.212409,,0,J22214OKB11,0
J22214OKB11_w,市の瀬w,藤枝市,34.9654867,138.212294,,0,J22214OKB11,0
J22214OKB12,峠,藤枝市,34.9566851,138.2096118,,1,,0
J22214OKB12_e,峠e,藤枝市,34.9566851,138.2096118,,0,J22214OKB12,0
J22214OKB12_w,峠w,藤枝市,34.95661,138.209279,,0,J22214OKB12,0
J22214OKB13,びく石ふれあい広場前,藤枝市,34.951475,138.212117,,1,,0
J22214OKB13_e,びく石ふれあい広場前e,藤枝市,34.951475,138.212117,,0,J22214OKB13,0
J22214OKB13_w,びく石ふれあい広場前w,藤枝市,34.951233,138.211822,,0,J22214OKB13,0
J22214OKB26,滝沢,藤枝市,34.9092013,138.1946987,,1,,0
J22214OKB26_e,滝沢e,藤枝市,34.9092013,138.1946987,,0,J22214OKB26,0
J22214OKB26_w,滝沢w,藤枝市,34.909104,138.194645,,0,J22214OKB26,0
J22214OKB27,不動峡入口,藤枝市,34.9136003,138.1923223,,1,,0
J22214OKB27_e,不動峡入口e,藤枝市,34.9136003,138.1923223,,0,J22214OKB27,0
J22214OKB27_w,不動峡入口w,藤枝市,34.913576,138.192261,,0,J22214OKB27,0
J22214OKB28,政鹿,藤枝市,34.9146429,138.1879771,,1,,0
J22214OKB28_n,政鹿n,藤枝市,34.9146429,138.1879771,,0,J22214OKB28,0
J22214OKB28_s,政鹿s,藤枝市,34.914586,138.18831,,0,J22214OKB28,0
J22214OKB29,滝沢中,藤枝市,34.9138159,138.1817436,,1,,0
J22214OKB29_n,滝沢中n,藤枝市,34.9138159,138.1817436,,0,J22214OKB29,0
J22214OKB29_s,滝沢中s,藤枝市,34.9137986,138.1819953,,0,J22214OKB29,0
J22214OKB30,上滝沢,藤枝市,34.915162,138.180789,,1,,0
J22214OKB30_0,上滝沢0,藤枝市,34.915162,138.180789,,0,J22214OKB30,0
J22214OKB31,滝ノ谷集会所,藤枝市,34.930851,138.1881434,,1,,0
J22214OKB31_e,滝ノ谷集会所e,藤枝市,34.9308027,138.1881809,,0,J22214OKB31,0
J22214OKB31_w,滝ノ谷集会所w,藤枝市,34.930851,138.1881434,,0,J22214OKB31,0
J22214OKB32,滝ノ谷,藤枝市,34.933041,138.187087,,1,,0
J22214OKB32_0,滝ノ谷0,藤枝市,34.933041,138.187087,,0,J22214OKB32,0
J22214OSJ01_5,藤枝駅南口 5番のりば,藤枝市,34.8487348,138.2525164,,0,J22214YRK28,0
J22214OSJ02,順心高校前,藤枝市,34.8464191,138.2542437,,1,,0
J22214OSJ02_e,順心高校前e,藤枝市,34.8464191,138.2542437,,0,J22214OSJ02,0
J22214OSJ02_w,順心高校前w,藤枝市,34.8464147,138.254056,,0,J22214OSJ02,0
J22214OSJ03,労金藤枝支店,藤枝市,34.8437027,138.2554293,,1,,0
J22214OSJ03_e,労金藤枝支店e,藤枝市,34.8437027,138.2554293,,0,J22214OSJ03,0
J22214OSJ03_w,労金藤枝支店w,藤枝市,34.8436147,138.2553005,,0,J22214OSJ03,0
J22214OSJ04,ＪＡ大井川高岡支店,藤枝市,34.8402202,138.2562339,,1,,0
J22214OSJ04_e,ＪＡ大井川高岡支店e,藤枝市,34.8402202,138.2562339,,0,J22214OSJ04,0
J22214OSJ04_w,ＪＡ大井川高岡支店w,藤枝市,34.8401189,138.2561159,,0,J22214OSJ04,0
J22214OSJ05,高洲南　北川医院前,藤枝市,34.8373693,138.2568642,,1,,0
J22214OSJ05_e,高洲南　北川医院前e,藤枝市,34.8373693,138.2568642,,0,J22214OSJ05,0
J22214OSJ05_w,高洲南　北川医院前w,藤枝市,34.8372394,138.2567811,,0,J22214OSJ05,0
J22214OSJ06,泉町,藤枝市,34.8337654,138.2576206,,1,,0
J22214OSJ06_e,泉町e,藤枝市,34.8337654,138.2576206,,0,J22214OSJ06,0
J22214OSJ06_w,泉町w,藤枝市,34.8336729,138.2574785,,0,J22214OSJ06,0
J22214OSJ07,大洲四丁目鈴木レディースクリニック前,藤枝市,34.8287302,138.2577789,,1,,0
J22214OSJ07_e,大洲四丁目鈴木レディースクリニック前e,藤枝市,34.8287302,138.2577789,,0,J22214OSJ07,0
J22214OSJ07_w,大洲四丁目鈴木レディースクリニック前w,藤枝市,34.8286443,138.2576394,,0,J22214OSJ07,0
J22214OSJ08,大洲中学入口,藤枝市,34.8267068,138.2571647,,1,,0
J22214OSJ08_e,大洲中学入口e,藤枝市,34.8267068,138.2571647,,0,J22214OSJ08,0
J22214OSJ08_w,大洲中学入口w,藤枝市,34.8266715,138.2570279,,0,J22214OSJ08,0
J22214OSJ09,弥左衛門,藤枝市,34.8246569,138.256647,,1,,0
J22214OSJ09_e,弥左衛門e,藤枝市,34.8246569,138.256647,,0,J22214OSJ09,0
J22214OSJ09_w,弥左衛門w,藤枝市,34.8246811,138.2565129,,0,J22214OSJ09,0
J22214OSJ10,大洲五丁目,藤枝市,34.8251985,138.2537878,,1,,0
J22214OSJ10_n,大洲五丁目n,藤枝市,34.8253681,138.2537019,,0,J22214OSJ10,0
J22214OSJ10_s,大洲五丁目s,藤枝市,34.8251985,138.2537878,,0,J22214OSJ10,0
J22214OSJ11,大洲小学校前,藤枝市,34.8276007,138.2510519,,1,,0
J22214OSJ11_n,大洲小学校前n,藤枝市,34.8277108,138.2509017,,0,J22214OSJ11,0
J22214OSJ11_s,大洲小学校前s,藤枝市,34.8276007,138.2510519,,0,J22214OSJ11,0
J22214OSJ12,ＪＡ大井川大洲支店,藤枝市,34.8282084,138.2488203,,1,,0
J22214OSJ12_n,ＪＡ大井川大洲支店n,藤枝市,34.8283625,138.248595,,0,J22214OSJ12,0
J22214OSJ12_s,ＪＡ大井川大洲支店s,藤枝市,34.8282084,138.2488203,,0,J22214OSJ12,0
J22214OSJ13,大西町二丁目,藤枝市,34.8283405,138.2440406,,1,,0
J22214OSJ13_n,大西町二丁目n,藤枝市,34.8284682,138.2438958,,0,J22214OSJ13,0
J22214OSJ13_s,大西町二丁目s,藤枝市,34.8283405,138.2440406,,0,J22214OSJ13,0
J22214OSJ14,きのこ団地,藤枝市,34.83244,138.2442337,,1,,0
J22214OSJ14_e,きのこ団地e,藤枝市,34.8325633,138.2443893,,0,J22214OSJ14,0
J22214OSJ14_w,きのこ団地w,藤枝市,34.83244,138.2442337,,0,J22214OSJ14,0
J22214OSJ15,県立藤枝特別支援学校西,藤枝市,34.8362223,138.2456821,,1,,0
J22214OSJ15_e,県立藤枝特別支援学校西e,藤枝市,34.8363148,138.245827,,0,J22214OSJ15,0
J22214OSJ15_w,県立藤枝特別支援学校西w,藤枝市,34.8362223,138.2456821,,0,J22214OSJ15,0
J22214OSJ16,下青島南,藤枝市,34.8399032,138.24624,,1,,0
J22214OSJ16_e,下青島南e,藤枝市,34.84005,138.24632,,0,J22214OSJ16,0
J22214OSJ16_w,下青島南w,藤枝市,34.8399032,138.24624,,0,J22214OSJ16,0
J22214OSJ17,下青島,藤枝市,34.8425845,138.2468408,,1,,0
J22214OSJ17_e,下青島e,藤枝市,34.8426549,138.2470071,,0,J22214OSJ17,0
J22214OSJ17_w,下青島w,藤枝市,34.8425845,138.2468408,,0,J22214OSJ17,0
J22214OSJ18,青島中学入口,藤枝市,34.845083,138.2475677,,1,,0
J22214OSJ18_e,青島中学入口e,藤枝市,34.8450764,138.2477152,,0,J22214OSJ18,0
J22214OSJ18_w,青島中学入口w,藤枝市,34.845083,138.2475677,,0,J22214OSJ18,0
J22214OSJ19,前島神社入口,藤枝市,34.846155,138.2488149,,1,,0
J22214OSJ19_n,前島神社入口n,藤枝市,34.846155,138.2488149,,0,J22214OSJ19,0
J22214OSJ19_s,前島神社入口s,藤枝市,34.8460273,138.24889,,0,J22214OSJ19,0
J22214OSJ20,瀬戸新屋北,藤枝市,34.8506983,138.2410473,,1,,0
J22214OSJ20_n,瀬戸新屋北n,藤枝市,34.8508127,138.2409883,,0,J22214OSJ20,0
J22214OSJ20_s,瀬戸新屋北s,藤枝市,34.8506983,138.2410473,,0,J22214OSJ20,0
J22214OSJ21,水上平成記念病院西,藤枝市,34.85514,138.2431126,,1,,0
J22214OSJ21_e,水上平成記念病院西e,藤枝市,34.85514,138.2431126,,0,J22214OSJ21,0
J22214OSJ21_w,水上平成記念病院西w,藤枝市,34.8548671,138.2430643,,0,J22214OSJ21,0
J22214OSJ22,駿河台南,藤枝市,34.8575611,138.2337248,,1,,0
J22214OSJ22_e,駿河台南e,藤枝市,34.8575611,138.2337248,,0,J22214OSJ22,0
J22214OSJ22_w,駿河台南w,藤枝市,34.8575259,138.2336014,,0,J22214OSJ22,0
J22214OSJ23,さくら通り,藤枝市,34.85878,138.23282,,1,,0
J22214OSJ23_e,さくら通りe,藤枝市,34.85878,138.23282,,0,J22214OSJ23,0
J22214OSJ23_w,さくら通りw,藤枝市,34.8586572,138.2328397,,0,J22214OSJ23,0
J22214OSJ24,藤枝市立総合病院,藤枝市,34.8606953,138.2306779,,1,,0
J22214OSJ24_1,藤枝市立総合病院 1番のりば,藤枝市,34.8606953,138.2306779,,0,J22214OSJ24,0
J22214YRK01,筈の木橋,藤枝市,34.9474606,138.2095742,,1,,0
J22214YRK01_e,筈の木橋e,藤枝市,34.9474606,138.2095742,,0,J22214YRK01,0
J22214YRK01_w,筈の木橋w,藤枝市,34.9473418,138.2093676,,0,J22214YRK01,0
J22214YRK02,中里上,藤枝市,34.9430106,138.2096064,,1,,0
J22214YRK02_e,中里上e,藤枝市,34.9430106,138.2096064,,0,J22214YRK02,0
J22214YRK02_w,中里上w,藤枝市,34.9427863,138.2095742,,0,J22214YRK02,0
J22214YRK03,中里,藤枝市,34.9387715,138.2091021,,1,,0
J22214YRK03_n,中里n,藤枝市,34.9387715,138.2091021,,0,J22214YRK03,0
J22214YRK03_s,中里s,藤枝市,34.938745,138.2092309,,0,J22214YRK03,0
J22214YRK04,玉田橋,藤枝市,34.9347388,138.2046926,,1,,0
J22214YRK04_e,玉田橋e,藤枝市,34.9346816,138.2048428,,0,J22214YRK04,0
J22214YRK04_w,玉田橋w,藤枝市,34.9347388,138.2046926,,0,J22214YRK04,0
J22214YRK05,瀬戸谷温泉ゆらく前,藤枝市,34.9286916,138.2050145,,1,,0
J22214YRK05_e,瀬戸谷温泉ゆらく前e,藤枝市,34.9286916,138.2050145,,0,J22214YRK05,0
J22214YRK05_w,瀬戸谷温泉ゆらく前w,藤枝市,34.9284013,138.2048911,,0,J22214YRK05,0
J22214YRK06,藤太夫島,藤枝市,34.9235212,138.2059109,,1,,0
J22214YRK06_e,藤太夫島e,藤枝市,34.9235212,138.2059109,,0,J22214YRK06,0
J22214YRK06_w,藤太夫島w,藤枝市,34.923163,138.2058245,,0,J22214YRK06,0
J22214YRK07,大出橋,藤枝市,34.9199521,138.2066238,,1,,0
J22214YRK07_e,大出橋e,藤枝市,34.9197806,138.20701,,0,J22214YRK07,0
J22214YRK07_w,大出橋w,藤枝市,34.9199521,138.2066238,,0,J22214YRK07,0
J22214YRK08,本郷原,藤枝市,34.9173173,138.2053149,,1,,0
J22214YRK08_e,本郷原e,藤枝市,34.9173173,138.2053149,,0,J22214YRK08,0
J22214YRK08_w,本郷原w,藤枝市,34.9172645,138.205111,,0,J22214YRK08,0
J22214YRK09,瀬戸谷小学校前,藤枝市,34.9134596,138.2027078,,1,,0
J22214YRK09_e,瀬戸谷小学校前e,藤枝市,34.9132616,138.2027936,,0,J22214YRK09,0
J22214YRK09_w,瀬戸谷小学校前w,藤枝市,34.9134596,138.2027078,,0,J22214YRK09,0
J22214YRK10,本郷普門寺前,藤枝市,34.9101867,138.1989151,,1,,0
J22214YRK10_e,本郷普門寺前e,藤枝市,34.910143,138.199001,,0,J22214YRK10,0
J22214YRK10_w,本郷普門寺前w,藤枝市,34.9101867,138.1989151,,0,J22214YRK10,0
J22214YRK11,中山上,藤枝市,34.906377,138.1982875,,1,,0
J22214YRK11_e,中山上e,藤枝市,34.9062934,138.1984591,,0,J22214YRK11,0
J22214YRK11_w,中山上w,藤枝市,34.906377,138.1982875,,0,J22214YRK11,0
J22214YRK12,中山,藤枝市,34.9037594,138.1988132,,1,,0
J22214YRK12_e,中山e,藤枝市,34.9036714,138.198899,,0,J22214YRK12,0
J22214YRK12_w,中山w,藤枝市,34.9037594,138.1988132,,0,J22214YRK12,0
J22214YRK13,宮原上,藤枝市,34.8990387,138.202343,,1,,0
J22214YRK13_e,宮原上e,藤枝市,34.8989727,138.2026756,,0,J22214YRK13,0
J22214YRK13_w,宮原上w,藤枝市,34.8990387,138.202343,,0,J22214YRK13,0
J22214YRK14,聖稜リハビリテーション病院,藤枝市,34.8976791,138.2053685,,1,,0
J22214YRK14_e,聖稜リハビリテーション病院e,藤枝市,34.8976791,138.2053685,,0,J22214YRK14,0
J22214YRK14_w,聖稜リハビリテーション病院w,藤枝市,34.8976395,138.205213,,0,J22214YRK14,0
J22214YRK15,三井農林日東紅茶前,藤枝市,34.8961128,138.2082438,,1,,0
J22214YRK15_e,三井農林日東紅茶前e,藤枝市,34.8961128,138.2082438,,0,J22214YRK15,0
J22214YRK15_w,三井農林日東紅茶前w,藤枝市,34.896082,138.2080883,,0,J22214YRK15,0
J22214YRK16,寺島,藤枝市,34.8931297,138.2151318,,1,,0
J22214YRK16_e,寺島e,藤枝市,34.8930681,138.215282,,0,J22214YRK16,0
J22214YRK16_w,寺島w,藤枝市,34.8931297,138.2151318,,0,J22214YRK16,0
J22214YRK17,薬師堂入口,藤枝市,34.8872688,138.2157607,,1,,0
J22214YRK17_e,薬師堂入口e,藤枝市,34.8872688,138.2157607,,0,J22214YRK17,0
J22214YRK17_w,薬師堂入口w,藤枝市,34.8872114,138.2156682,,0,J22214YRK17,0
J22214YRK18,稲葉公民館,藤枝市,34.8851829,138.2147187,,1,,0
J22214YRK18_e,稲葉公民館e,藤枝市,34.8850245,138.2148099,,0,J22214YRK18,0
J22214YRK18_w,稲葉公民館w,藤枝市,34.8851829,138.2147187,,0,J22214YRK18,0
J22214YRK19,稲葉小学校,藤枝市,34.8813808,138.2176745,,1,,0
J22214YRK19_e,稲葉小学校e,藤枝市,34.8813808,138.2176745,,0,J22214YRK19,0
J22214YRK19_w,稲葉小学校w,藤枝市,34.8813148,138.2175297,,0,J22214YRK19,0
J22214YRK20,矢崎橋,藤枝市,34.8785996,138.2217515,,1,,0
J22214YRK20_e,矢崎橋e,藤枝市,34.8785996,138.2217515,,0,J22214YRK20,0
J22214YRK20_w,矢崎橋w,藤枝市,34.8785115,138.2216281,,0,J22214YRK20,0
J22214YRK21,堀之内,藤枝市,34.8791277,138.2243264,,1,,0
J22214YRK21_e,堀之内e,藤枝市,34.8791277,138.2243264,,0,J22214YRK21,0
J22214YRK21_w,堀之内w,藤枝市,34.8790352,138.2242084,,0,J22214YRK21,0
J22214YRK22,菅ヶ谷内科前,藤枝市,34.8786744,138.2256997,,1,,0
J22214YRK22_e,菅ヶ谷内科前e,藤枝市,34.8786744,138.2256997,,0,J22214YRK22,0
J22214YRK22_w,菅ヶ谷内科前w,藤枝市,34.878616,138.2255992,,0,J22214YRK22,0
J22214YRK23,総合運動公園入口,藤枝市,34.8772705,138.2289827,,1,,0
J22214YRK23_e,総合運動公園入口e,藤枝市,34.8772705,138.2289827,,0,J22214YRK23,0
J22214YRK23_w,総合運動公園入口w,藤枝市,34.8772089,138.22887,,0,J22214YRK23,0
J22214YRK24,金吹橋,藤枝市,34.8731336,138.2329416,,1,,0
J22214YRK24_e,金吹橋e,藤枝市,34.8731336,138.2329416,,0,J22214YRK24,0
J22214YRK24_w,金吹橋w,藤枝市,34.8730588,138.2325447,,0,J22214YRK24,0
J22214YRK25,南駿河台四丁目,藤枝市,34.8619409,138.2360101,,1,,0
J22214YRK25_n,南駿河台四丁目n,藤枝市,34.8619409,138.2360101,,0,J22214YRK25,0
J22214YRK25_s,南駿河台四丁目s,藤枝市,34.8618485,138.236053,,0,J22214YRK25,0
J22214YRK26,駿河台,藤枝市,34.861712,138.233521,,1,,0
J22214YRK26_n,駿河台n,藤枝市,34.861712,138.233521,,0,J22214YRK26,0
J22214YRK26_s,駿河台s,藤枝市,34.8615932,138.2336497,,0,J22214YRK26,0
J22214YRK27_2,藤枝市立総合病院 2番のりば,藤枝市,34.8608,138.2306,,0,J22214OSJ24,0
J22214YRK28,藤枝駅,藤枝市,34.8492098,138.2523769,,1,,0
J22214YRK28_3,藤枝駅前3,藤枝市,34.8498398,138.2523769,,0,J22214YRK28,0
J22214ZZM06,県立藤枝特別支援学校,藤枝市,34.8364336,138.2464653,,1,,0
J22214ZZM06_w,県立藤枝特別支援学校w,藤枝市,34.8361959,138.246401,,0,J22214ZZM06,0
J22214ZZM07,忠兵衛中,藤枝市,34.8321802,138.2478493,,1,,0
J22214ZZM07_e,忠兵衛中e,藤枝市,34.8321802,138.2478493,,0,J22214ZZM07,0
J22214ZZM07_w,忠兵衛中w,藤枝市,34.8319336,138.2477474,,0,J22214ZZM07,0
J22214ZZM08,大洲２丁目　島田信用金庫藤枝南支店前,藤枝市,34.8297319,138.2474846,,1,,0
J22214ZZM08_e,大洲２丁目　島田信用金庫藤枝南支店前e,藤枝市,34.829186,138.2474148,,0,J22214ZZM08,0
J22214ZZM08_w,大洲２丁目　島田信用金庫藤枝南支店前w,藤枝市,34.8297319,138.2474846,,0,J22214ZZM08,0
J22214ZZM09,ヘルスポート前,藤枝市,34.827244,138.2465404,,1,,0
J22214ZZM09_e,ヘルスポート前e,藤枝市,34.827244,138.2465404,,0,J22214ZZM09,0
J22214ZZM09_w,ヘルスポート前w,藤枝市,34.8271823,138.2463205,,0,J22214ZZM09,0
J22214ZZM10,善左衛門　健診センター北,藤枝市,34.8252095,138.2448936,,1,,0
J22214ZZM10_e,善左衛門　健診センター北e,藤枝市,34.8251435,138.2450383,,0,J22214ZZM10,0
J22214ZZM10_w,善左衛門　健診センター北w,藤枝市,34.8252095,138.2448936,,0,J22214ZZM10,0
J22214ZZM11,善左衛門南,藤枝市,34.8229989,138.2421362,,1,,0
J22214ZZM11_e,善左衛門南e,藤枝市,34.8229086,138.2422891,,0,J22214ZZM11,0
J22214ZZM11_w,善左衛門南w,藤枝市,34.8229989,138.2421362,,0,J22214ZZM11,0
J22214ZZM12,村上開明堂前,藤枝市,34.8178243,138.2472485,,1,,0
J22214ZZM12_0,村上開明堂前0,藤枝市,34.8178243,138.2472485,,0,J22214ZZM12,0
J22214ZZM13,つつじ平団地,藤枝市,34.816252,138.2496089,,1,,0
J22214ZZM13_0,つつじ平団地0,藤枝市,34.816252,138.2496089,,0,J22214ZZM13,0
J22214ZZM14,ニチビ工場前,藤枝市,34.8237651,138.2388532,,1,,0
J22214ZZM14_n,ニチビ工場前n,藤枝市,34.8237651,138.2388532,,0,J22214ZZM14,0
J22214ZZM14_s,ニチビ工場前s,藤枝市,34.8236771,138.2387674,,0,J22214ZZM14,0
J22214ZZM15,科研製薬前,藤枝市,34.8257556,138.2339931,,1,,0
J22214ZZM15_n,科研製薬前n,藤枝市,34.8257556,138.2339931,,0,J22214ZZM15,0
J22214ZZM15_s,科研製薬前s,藤枝市,34.8256896,138.2338857,,0,J22214ZZM15,0
J22214ZZM16,持田製薬前,藤枝市,34.8284682,138.2237685,,1,,0
J22214ZZM16_0,持田製薬前0,藤枝市,34.8284682,138.2237685,,0,J22214ZZM16,0
J22214ZZM17,大西町三丁目,藤枝市,34.8287456,138.2340682,,1,,0
J22214ZZM17_e,大西町三丁目e,藤枝市,34.82873,138.23412,,0,J22214ZZM17,0
J22214ZZM17_w,大西町三丁目w,藤枝市,34.8287456,138.2340682,,0,J22214ZZM17,0
J22214ZZM18,大西町一丁目,藤枝市,34.8296527,138.2389873,,1,,0
J22214ZZM18_e,大西町一丁目e,藤枝市,34.82965,138.23903,,0,J22214ZZM18,0
J22214ZZM18_w,大西町一丁目w,藤枝市,34.8296527,138.2389873,,0,J22214ZZM18,0
J22214ZZM19,青南町三丁目,藤枝市,34.8330785,138.2391053,,1,,0
J22214ZZM19_e,青南町三丁目e,藤枝市,34.8330564,138.2391858,,0,J22214ZZM19,0
J22214ZZM19_w,青南町三丁目w,藤枝市,34.8330785,138.2391053,,0,J22214ZZM19,0
J22214ZZM20,青南町四丁目　坂本医院前,藤枝市,34.8360682,138.2392931,,1,,0
J22214ZZM20_e,青南町四丁目　坂本医院前e,藤枝市,34.8360682,138.2392931,,0,J22214ZZM20,0
J22214ZZM20_w,青南町四丁目　坂本医院前w,藤枝市,34.836033,138.2392126,,0,J22214ZZM20,0
J22214ZZM21,ふれあい広場,藤枝市,34.8381552,138.2396579,,1,,0
J22214ZZM21_e,ふれあい広場e,藤枝市,34.8381552,138.2396579,,0,J22214ZZM21,0
J22214ZZM21_w,ふれあい広場w,藤枝市,34.8381024,138.2395238,,0,J22214ZZM21,0
J22214ZZM22,青島南公民館入口,藤枝市,34.8412724,138.2383704,,1,,0
J22214ZZM22_s,青島南公民館入口s,藤枝市,34.8410875,138.2384509,,0,J22214ZZM22,0
J22214ZZM23,青葉町三丁目,藤枝市,34.8426505,138.2373083,,1,,0
J22214ZZM23_n,青葉町三丁目n,藤枝市,34.8426505,138.2373083,,0,J22214ZZM23,0
J22214ZZM23_s,青葉町三丁目s,藤枝市,34.84261,138.23733,,0,J22214ZZM23,0
J22214ZZM24,岩城神社,藤枝市,34.8431656,138.2387406,,1,,0
J22214ZZM24_n,岩城神社n,藤枝市,34.8431656,138.2387406,,0,J22214ZZM24,0
J22214ZZM24_s,岩城神社s,藤枝市,34.8430952,138.2388103,,0,J22214ZZM24,0
J22214ZZM25,青島中学校,藤枝市,34.8444468,138.2421952,,1,,0
J22214ZZM25_n,青島中学校n,藤枝市,34.8444468,138.2421952,,0,J22214ZZM25,0
J22214ZZM25_s,青島中学校s,藤枝市,34.8443543,138.2422435,,0,J22214ZZM25,0
J22214ZZM26,青葉町　錦野クリニック前,藤枝市,34.8458732,138.2461971,,1,,0
J22214ZZM26_n,青葉町　錦野クリニック前n,藤枝市,34.8458732,138.2461971,,0,J22214ZZM26,0
J22214ZZM26_s,青葉町　錦野クリニック前s,藤枝市,34.8457808,138.2462347,,0,J22214ZZM26,0
J22209001,金谷中入口西,島田市,34.8311851,138.1232768,,1,,0
J22209001_0,金谷中入口西,島田市,34.8311851,138.1232768,,0,J22209001,0
J22209001_1,金谷中入口西,島田市,34.831141,138.123191,,0,J22209001,0
J22209002,金谷往還下,島田市,34.8232983,138.1355024,,1,,0
J22209002_0,金谷往還下,島田市,34.8232983,138.1355024,,0,J22209002,0
J22209003,金谷泉町,島田市,34.831876,138.131715,,1,,0
J22209003_0,金谷泉町,島田市,34.831876,138.131715,,0,J22209003,0
J22209004,金谷根岸町,島田市,34.8293116,138.125093,,1,,0
J22209004_0,金谷根岸町,島田市,34.8293116,138.125093,,0,J22209004,0
J22209004_1,金谷根岸町,島田市,34.8294457,138.1250954,,0,J22209004,0
J22209005,金谷清水町,島田市,34.8236855,138.131468,,1,,0
J22209005_0,金谷清水町,島田市,34.8236855,138.131468,,0,J22209005,0
J22209006,金谷高校前,島田市,34.8275936,138.1271953,,1,,0
J22209006_0,金谷高校前,島田市,34.8275936,138.1271953,,0,J22209006,0
J22209006_1,金谷高校前,島田市,34.8276535,138.1272894,,0,J22209006,0
J22209007,食鮮館タイヨー栄町店前,島田市,34.830996,138.12885,,1,,0
J22209007_0,食鮮館タイヨー栄町店前,島田市,34.830996,138.12885,,0,J22209007,0
J22209008,番生寺会館前,島田市,34.8374244,138.1185771,,1,,0
J22209008_0,番生寺会館前,島田市,34.8374244,138.1185771,,0,J22209008,0
J22209008_1,番生寺会館前,島田市,34.8374596,138.1186903,,0,J22209008,0
J22209009,横岡新田,島田市,34.855527,138.117928,,1,,0
J22209009_0,横岡新田,島田市,34.855527,138.117928,,0,J22209009,0
J22209009_1,横岡新田,島田市,34.855516,138.117855,,0,J22209009,0
J22209010,東町東,島田市,34.8271515,138.1394508,,1,,0
J22209010_0,東町東,島田市,34.8271515,138.1394508,,0,J22209010,0
J22209011,島田金谷インター入口,島田市,34.8529262,138.1189475,,1,,0
J22209011_1,島田金谷インター入口,島田市,34.8528818,138.1188887,,0,J22209011,0
J22209012,カーマアットホーム金谷店前,島田市,34.832924,138.134829,,1,,0
J22209012_0,カーマアットホーム金谷店前,島田市,34.832924,138.134829,,0,J22209012,0
J22209013,むらい金谷店前,島田市,34.828996,138.1379059,,1,,0
J22209013_0,むらい金谷店前,島田市,34.828996,138.1379059,,0,J22209013,0
J222092080,金谷小学校前,島田市,34.825939,138.1290682,,1,,0
J222092080_0,金谷小学校前,島田市,34.8259044,138.1290436,,0,J222092080,0
J222092081,金谷駅前,島田市,34.8190189,138.12505,,1,,0
J222092081_2,金谷駅前（萩間線・勝間田線）,島田市,34.8191168,138.1247069,,0,J222092081,0
J222092081_3,金谷駅前（夢づくり会館線・菊川神谷城線）,島田市,34.8190748,138.1248506,,0,J222092081,0
J222092081_4,金谷駅前（金谷循環線・大代線）,島田市,34.8191261,138.1248029,,0,J222092081,0
J222092082,金谷南町,島田市,34.818613,138.129441,,1,,0
J222092082_0,金谷南町,島田市,34.818573,138.129368,,0,J222092082,0
J222092082_1,金谷南町,島田市,34.818708,138.129744,,0,J222092082,0
J222092083,牧之原公園前,島田市,34.81563,138.13453,,1,,0
J222092083_0,牧之原公園前,島田市,34.815358,138.135003,,0,J222092083,0
J222092083_1,牧之原公園前,島田市,34.815872,138.134145,,0,J222092083,0
J222092084,二軒家原・お茶の郷,島田市,34.814126,138.136591,,1,,0
J222092084_0,二軒家原・お茶の郷,島田市,34.81364,138.136404,,0,J222092084,0
J222092084_1,二軒家原・お茶の郷,島田市,34.814126,138.136591,,0,J222092084,0
J222092085,JA牧之原支店,牧之原市,34.811434,138.135612,,1,,0
J222092085_0,JA牧之原支店,牧之原市,34.81144,138.13564,,0,J222092085,0
J222092085_1,JA牧之原支店,牧之原市,34.811393,138.135525,,0,J222092085,0
J222092086,金谷茶業研究拠点,牧之原市,34.808754,138.135403,,1,,0
J222092086_0,金谷茶業研究拠点,牧之原市,34.808536,138.135311,,0,J222092086,0
J222092086_1,金谷茶業研究拠点,牧之原市,34.808728,138.135434,,0,J222092086,0
J222092087,猪土居,牧之原市,34.806437,138.135285,,1,,0
J222092087_0,猪土居,牧之原市,34.806691,138.135175,,0,J222092087,0
J222092087_1,猪土居,牧之原市,34.806844,138.135332,,0,J222092087,0
J222092088,切山原,牧之原市,34.8036,138.13897,,1,,0
J222092088_0,切山原,牧之原市,34.80366,138.138099,,0,J222092088,0
J222092088_1,切山原,牧之原市,34.80373,138.13876,,0,J222092088,0
J222092089,上切山,牧之原市,34.796593,138.143683,,1,,0
J222092089_0,上切山,牧之原市,34.796528,138.143696,,0,J222092089,0
J222092089_1,上切山,牧之原市,34.796593,138.143683,,0,J222092089,0
J222092090,坂下,牧之原市,34.787649,138.149939,,1,,0
J222092090_0,坂下,牧之原市,34.788105,138.149788,,0,J222092090,0
J222092090_1,坂下,牧之原市,34.787649,138.149939,,0,J222092090,0
J222092091,切中,牧之原市,34.78636,138.15328,,1,,0
J222092091_0,切中,牧之原市,34.78647,138.153224,,0,J222092091,0
J222092091_1,切中,牧之原市,34.78624,138.15337,,0,J222092091,0
J222092092,中島,牧之原市,34.78479,138.15568,,1,,0
J222092092_0,中島,牧之原市,34.78491,138.15562,,0,J222092092,0
J222092092_1,中島,牧之原市,34.78464,138.15578,,0,J222092092,0
J222092093,陽光院前,牧之原市,34.782361,138.162672,,1,,0
J222092093_0,陽光院前,牧之原市,34.782361,138.162672,,0,J222092093,0
J222092093_1,陽向院前,牧之原市,34.782336,138.162756,,0,J222092093,0
J222092094,最明寺,牧之原市,34.778853,138.170848,,1,,0
J222092094_0,最明寺,牧之原市,34.779049,138.17054,,0,J222092094,0
J222092094_1,最明寺,牧之原市,34.778853,138.170848,,0,J222092094,0
J222092095,智生寺,牧之原市,34.775185,138.177143,,1,,0
J222092095_0,智生寺,牧之原市,34.774984,138.177323,,0,J222092095,0
J222092095_1,智生寺,牧之原市,34.775185,138.177143,,0,J222092095,0
J222092096,勝間,牧之原市,34.767847,138.185998,,1,,0
J222092096_0,勝間,牧之原市,34.767777,138.185963,,0,J222092096,0
J222092096_1,勝間,牧之原市,34.767847,138.185998,,0,J222092096,0
J222092097,勝間学校前,牧之原市,34.76716,138.188793,,1,,0
J222092097_0,勝間学校前,牧之原市,34.76716,138.188793,,0,J222092097,0
J222092097_1,勝間学校前,牧之原市,34.767059,138.189122,,0,J222092097,0
J222092098,法士,牧之原市,34.76523,138.1928,,1,,0
J222092098_0,法士,牧之原市,34.765232,138.192923,,0,J222092098,0
J222092098_1,法士,牧之原市,34.76583,138.192071,,0,J222092098,0
J222092099,法士下,牧之原市,34.76325,138.19646,,1,,0
J222092099_0,法士下,牧之原市,34.76329,138.19648,,0,J222092099,0
J222092099_1,法士下,牧之原市,34.76321,138.19643,,0,J222092099,0
J222092100,三栗口,牧之原市,34.758148,138.203185,,1,,0
J222092100_0,三栗口,牧之原市,34.758254,138.203089,,0,J222092100,0
J222092100_1,三栗口,牧之原市,34.758148,138.203185,,0,J222092100,0
J222092101,中,牧之原市,34.75482,138.20782,,1,,0
J222092101_0,中,牧之原市,34.75506,138.20763,,0,J222092101,0
J222092101_1,中,牧之原市,34.75458,138.208,,0,J222092101,0
J222092102,榛原中学前,牧之原市,34.749295,138.215031,,1,,0
J222092102_0,榛原中学前,牧之原市,34.749318,138.215081,,0,J222092102,0
J222092102_1,榛原中学前,牧之原市,34.749295,138.215031,,0,J222092102,0
J222092103,仁田口,牧之原市,34.748265,138.218218,,1,,0
J222092103_0,仁田口,牧之原市,34.748178,138.218415,,0,J222092103,0
J222092103_1,仁田口,牧之原市,34.748265,138.218218,,0,J222092103,0
J222092104,内山,牧之原市,34.743747,138.22416,,1,,0
J222092104_0,内山,牧之原市,34.743495,138.224589,,0,J222092104,0
J222092104_1,内山,牧之原市,34.743747,138.22416,,0,J222092104,0
J222092105,相良営業所,牧之原市,34.68244,138.195454,,1,,0
J222092105_1,相良営業所,牧之原市,34.682723,138.195367,,0,J222092105,0
J222092105_2,相良営業所,牧之原市,34.682511,138.195175,,0,J222092105,0
J222092106,栄町,牧之原市,34.68482,138.19519,,1,,0
J222092106_0,栄町,牧之原市,34.68479,138.19525,,0,J222092106,0
J222092106_1,栄町,牧之原市,34.68475,138.19519,,0,J222092106,0
J222092107,大原,牧之原市,34.68757,138.19295,,1,,0
J222092107_0,大原,牧之原市,34.687546,138.193049,,0,J222092107,0
J222092107_1,大原,牧之原市,34.687562,138.19282,,0,J222092107,0
J222092108,菅山入口,牧之原市,34.695971,138.190961,,1,,0
J222092108_0,菅山入口,牧之原市,34.696285,138.190681,,0,J222092108,0
J222092108_1,菅山入口,牧之原市,34.69576,138.191118,,0,J222092108,0
J222092109,逆川,牧之原市,34.699182,138.189093,,1,,0
J222092109_0,逆川,牧之原市,34.699353,138.188923,,0,J222092109,0
J222092109_1,逆川,牧之原市,34.699509,138.188963,,0,J222092109,0
J222092110,松本,牧之原市,34.703209,138.186625,,1,,0
J222092110_0,松本,牧之原市,34.702886,138.186791,,0,J222092110,0
J222092110_1,松本,牧之原市,34.702935,138.186899,,0,J222092110,0
J222092111,女神,牧之原市,34.708031,138.184535,,1,,0
J222092111_0,女神,牧之原市,34.708815,138.184187,,0,J222092111,0
J222092111_1,女神,牧之原市,34.708281,138.184558,,0,J222092111,0
J222092112,JA萩間支店,牧之原市,34.7152084,138.1789326,,1,,0
J222092112_0,JA萩間支店,牧之原市,34.715263,138.179462,,0,J222092112,0
J222092112_1,JA萩間支店,牧之原市,34.715133,138.178454,,0,J222092112,0
J222092113,中西,牧之原市,34.715559,138.175508,,1,,0
J222092113_0,中西,牧之原市,34.715468,138.175783,,0,J222092113,0
J222092113_1,中西,牧之原市,34.715707,138.175283,,0,J222092113,0
J222092114,和田,牧之原市,34.7203835,138.1662837,,1,,0
J222092114_0,和田,牧之原市,34.7204192,138.1661773,,0,J222092114,0
J222092114_1,和田,牧之原市,34.7204376,138.1662833,,0,J222092114,0
J222092115,大興寺前,牧之原市,34.729648,138.162012,,1,,0
J222092115_0,大興寺前,牧之原市,34.729621,138.16194,,0,J222092115,0
J222092115_1,大興寺前,牧之原市,34.730302,138.161945,,0,J222092115,0
J222092116,さがら子生れ温泉,牧之原市,34.73318,138.1612,,1,,0
J222092116_0,さがら子生れ温泉,牧之原市,34.733222,138.161119,,0,J222092116,0
J222092116_1,さがら子生れ温泉,牧之原市,34.733099,138.161313,,0,J222092116,0
J222092117,西萩間上,牧之原市,34.736682,138.161333,,1,,0
J222092117_0,西萩間上,牧之原市,34.736834,138.161216,,0,J222092117,0
J222092117_1,西萩間上,牧之原市,34.736639,138.161441,,0,J222092117,0
J222092118,東萩間下,牧之原市,34.739839,138.159778,,1,,0
J222092118_0,東萩間下,牧之原市,34.740232,138.159514,,0,J222092118,0
J222092118_1,東萩間下,牧之原市,34.739979,138.159816,,0,J222092118,0
J222092119,東萩間,牧之原市,34.743329,138.156746,,1,,0
J222092119_0,東萩間,牧之原市,34.742581,138.157152,,0,J222092119,0
J222092119_1,東萩間,牧之原市,34.743385,138.156818,,0,J222092119,0
J222092120,牧之原サービスエリア入口,牧之原市,34.759747,138.155335,,1,,0
J222092120_0,牧之原サービスエリア入口,牧之原市,34.759706,138.155385,,0,J222092120,0
J222092120_1,牧之原サービスエリア入口,牧之原市,34.759834,138.155416,,0,J222092120,0
J222092121,大曲,牧之原市,34.762431,138.144671,,1,,0
J222092121_0,大曲,牧之原市,34.762545,138.14406,,0,J222092121,0
J222092121_1,大曲,牧之原市,34.762552,138.145338,,0,J222092121,0
J222092122,牧之原小学校,牧之原市,34.759489,138.135575,,1,,0
J222092122_0,牧之原小学校,牧之原市,34.759528,138.136402,,0,J222092122,0
J222092122_1,牧之原小学校,牧之原市,34.759537,138.135667,,0,J222092122,0
J222092123,仁王辻,牧之原市,34.76115,138.13413,,1,,0
J222092123_0,仁王辻,牧之原市,34.76101,138.134113,,0,J222092123,0
J222092123_1,仁王辻,牧之原市,34.761266,138.134178,,0,J222092123,0
J222092124,JA牧之原南支店前,牧之原市,34.765566,138.13913,,1,,0
J222092124_0,JA牧之原南支店前,牧之原市,34.76554,138.139459,,0,J222092124,0
J222092124_1,JA牧之原南支店前,牧之原市,34.765465,138.139396,,0,J222092124,0
J222092125,牧之原中央,牧之原市,34.77184,138.14171,,1,,0
J222092125_0,牧之原中央,牧之原市,34.771956,138.141726,,0,J222092125,0
J222092125_1,牧之原中央,牧之原市,34.771799,138.141767,,0,J222092125,0
J222092126,矢崎工場前,牧之原市,34.777204,138.14305,,1,,0
J222092126_0,矢崎工場前,牧之原市,34.776808,138.142981,,0,J222092126,0
J222092126_1,矢崎工場前,牧之原市,34.776762,138.142912,,0,J222092126,0
J222092127,茶業研究センター,牧之原市,34.78461,138.14106,,1,,0
J222092127_0,茶業研究センター,牧之原市,34.784882,138.140816,,0,J222092127,0
J222092127_1,茶業研究センター,牧之原市,34.784302,138.141387,,0,J222092127,0
J222092128,六本松下,牧之原市,34.788198,138.139809,,1,,0
J222092128_0,六本松下,牧之原市,34.788514,138.139576,,0,J222092128,0
J222092128_1,六本松下,牧之原市,34.788395,138.139731,,0,J222092128,0
J222092129,六本松,牧之原市,34.790925,138.139116,,1,,0
J222092129_0,六本松,牧之原市,34.791573,138.138918,,0,J222092129,0
J222092129_1,六本松,牧之原市,34.791411,138.139048,,0,J222092129,0
J222092130,倉沢入口,牧之原市,34.79557,138.13764,,1,,0
J222092130_0,倉沢入口,牧之原市,34.795688,138.137528,,0,J222092130,0
J222092130_1,倉沢入口,牧之原市,34.795658,138.13767,,0,J222092130,0
J222092131,猪土居南,牧之原市,34.800823,138.136044,,1,,0
J222092131_0,猪土居南,牧之原市,34.800594,138.135982,,0,J222092131,0
J222092131_1,猪土居南,牧之原市,34.800789,138.136028,,0,J222092131,0
J222093326,田町,島田市,34.8208569,138.1269429,,1,,0
J222093326_0,田町,島田市,34.820826,138.1270073,,0,J222093326,0
J222093326_1,田町,島田市,34.82085,138.1268358,,0,J222093326,0
J222093339,本通三丁目,島田市,34.8325927,138.1746752,,1,,0
J222093339_0,本通三丁目,島田市,34.8325499,138.1747086,,0,J222093339,0
J222093339_1,本通三丁目,島田市,34.8326535,138.1746162,,0,J222093339,0
J222093340,島田駅,島田市,34.8300891,138.1742785,,1,,0
J222093340_1,島田駅 北口１番のりば,島田市,34.8306434,138.1735064,,0,J222093340,0
J222093340_2,島田駅 北口２番のりば,島田市,34.8306016,138.1737504,,0,J222093340,0
J222093340_5,島田駅 南口５番のりば,島田市,34.8294766,138.1737292,,0,J222093340,0
J222093342,大津通り,島田市,34.8386553,138.1793218,,1,,0
J222093342_0,大津通り,島田市,34.838673,138.179367,,0,J222093342,0
J222093342_1,大津通り,島田市,34.8386218,138.1792334,,0,J222093342,0
J222093343,保健福祉センター入口,島田市,34.8403436,138.180092,,1,,0
J222093343_0,保健福祉センター入口,島田市,34.84037,138.1801457,,0,J222093343,0
J222093343_1,保健福祉センター入口,島田市,34.8403894,138.18004,,0,J222093343,0
J222093345,島田市民病院,島田市,34.8454471,138.1828756,,1,,0
J222093345_0,島田市民病院,島田市,34.8454515,138.1828756,,0,J222093345,0
J222093365,静波二丁目,牧之原市,34.741408,138.22352,,1,,0
J222093365_0,静波二丁目,牧之原市,34.74152,138.223672,,0,J222093365,0
J222093365_1,静波二丁目,牧之原市,34.741408,138.22352,,0,J222093365,0
J222093366,榛原高校入口,牧之原市,34.739777,138.221679,,1,,0
J222093366_0,榛原高校入口,牧之原市,34.739968,138.22188,,0,J222093366,0
J222093366_1,榛原高校入口,牧之原市,34.739777,138.221679,,0,J222093366,0
J222093367,静波三丁目,牧之原市,34.738242,138.220686,,1,,0
J222093367_0,静波三丁目,牧之原市,34.738187,138.220888,,0,J222093367,0
J222093367_1,静波三丁目,牧之原市,34.738242,138.220686,,0,J222093367,0
J222093368,静波四丁目,牧之原市,34.736933,138.222906,,1,,0
J222093368_0,静波四丁目,牧之原市,34.736966,138.223044,,0,J222093368,0
J222093368_1,静波四丁目,牧之原市,34.736933,138.222906,,0,J222093368,0
J222093369,静波海岸入口,牧之原市,34.7339,138.22504,,1,,0
J222093369_0,静波海岸入口,牧之原市,34.73394,138.22493,,0,J222093369,0
J222093383,榛原総合病院,牧之原市,34.755228,138.237347,,1,,0
J222093383_0,榛原総合病院,牧之原市,34.754999,138.237775,,0,J222093383,0
J222093386,島田郵便局,島田市,34.8379381,138.1757964,,1,,0
J222093386_0,島田郵便局,島田市,34.8379394,138.1758537,,0,J222093386,0
J222093386_1,島田郵便局,島田市,34.8379045,138.1757426,,0,J222093386,0
J222093395,谷口辻,島田市,34.8164601,138.2142347,,1,,0
J222093395_0,谷口辻,島田市,34.816445,138.214144,,0,J222093395,0
J222093395_1,谷口辻,島田市,34.816383,138.214348,,0,J222093395,0
J222093397,色尾,島田市,34.807352,138.220205,,1,,0
J222093397_0,色尾,島田市,34.80704,138.21919,,0,J222093397,0
J222093397_1,色尾,島田市,34.80686,138.218933,,0,J222093397,0
J2220950150,新金谷駅前,島田市,34.8261412,138.1369316,,1,,0
J2220950150_0,新金谷駅前,島田市,34.82615,138.136894,,0,J2220950150,0
J2220950455,元島田,島田市,34.8430556,138.1813199,,1,,0
J2220950455_0,元島田,島田市,34.8430292,138.1813467,,0,J2220950455,0
J2220950455_1,元島田,島田市,34.8431304,138.1812662,,0,J2220950455,0
J2220952426,ばらの丘一丁目,島田市,34.855783,138.172888,,1,,0
J2220952426_0,ばらの丘一丁目,島田市,34.855783,138.172888,,0,J2220952426,0
J2220952427,ばらの丘二丁目,島田市,34.857933,138.172815,,1,,0
J2220952427_0,ばらの丘二丁目,島田市,34.857927,138.17281,,0,J2220952427,0
J2220952428,落合春日神社,島田市,34.8571,138.175408,,1,,0
J2220952428_0,落合春日神社,島田市,34.8571,138.175408,,0,J2220952428,0
J2220952630,丹原,島田市,34.9170449,138.0975651,,1,,0
J2220952630_0,丹原,島田市,34.9170977,138.0976295,,0,J2220952630,0
J2220952630_1,丹原,島田市,34.9169834,138.0976242,,0,J2220952630,0
J2220952635,渡島橋,島田市,34.9308731,138.0863108,,1,,0
J2220952635_0,渡島橋,島田市,34.9308555,138.0863966,,0,J2220952635,0
J2220952635_1,渡島橋,島田市,34.9309083,138.0862464,,0,J2220952635,0
J2220952639,鍋島,島田市,34.89675,138.09857,,1,,0
J2220952639e,鍋島e,島田市,34.8969,138.09867,,0,J2220952639,0
J2220952639w,鍋島w,島田市,34.89675,138.09857,,0,J2220952639,0
J2220952645,川根中学校入口,島田市,34.942826,138.0875121,,1,,0
J2220952645_0,川根中学校入口,島田市,34.9427556,138.0875228,,0,J2220952645,0
J2220952645_1,川根中学校入口,島田市,34.9428699,138.0874799,,0,J2220952645,0
J22209713,御堂沢,島田市,34.9518729,138.1525729,,1,,0
J22209713_0,御堂沢,島田市,34.9518663,138.1525837,,0,J22209713,0
J22209714,二俣上,島田市,34.950463,138.1519746,,1,,0
J22209714_0,二俣上,島田市,34.9504992,138.1520323,,0,J22209714,0
J22209714_1,二俣上,島田市,34.9504278,138.1519236,,0,J22209714,0
J22209715,二俣,島田市,34.9487632,138.1513114,,1,,0
J22209715_0,二俣,島田市,34.9487904,138.1513566,,0,J22209715,0
J22209715_1,二俣,島田市,34.9487236,138.1512658,,0,J22209715,0
J22209716,笹渕,島田市,34.9414787,138.1477174,,1,,0
J22209716_0,笹渕,島田市,34.9414563,138.1477838,,0,J22209716,0
J22209716_1,笹渕,島田市,34.9415073,138.1476343,,0,J22209716,0
J22209717,中平,島田市,34.9390519,138.1454068,,1,,0
J22209717_0,中平,島田市,34.9389692,138.1454028,,0,J22209717,0
J22209717_1,中平,島田市,34.93912,138.1454068,,0,J22209717,0
J22209718,中平中,島田市,34.9351385,138.1449426,,1,,0
J22209718_0,中平中,島田市,34.9352246,138.1450082,,0,J22209718,0
J22209718_1,中平中,島田市,34.9350395,138.1448648,,0,J22209718,0
J22209719,中平下,島田市,34.9339832,138.1428434,,1,,0
J22209719_0,中平下,島田市,34.9339578,138.142937,,0,J22209719,0
J22209719_1,中平下,島田市,34.9339854,138.1427522,,0,J22209719,0
J22209720,伊久美郵便局,島田市,34.9327712,138.1415728,,1,,0
J22209720_0,伊久美郵便局,島田市,34.9327813,138.1416095,,0,J22209720,0
J22209720_1,伊久美郵便局,島田市,34.9327624,138.1415379,,0,J22209720,0
J22209721,小川橋,島田市,34.9298448,138.1416828,,1,,0
J22209721_0,小川橋,島田市,34.9298508,138.1417923,,0,J22209721,0
J22209721_1,小川橋,島田市,34.9298162,138.141554,,0,J22209721,0
J22209722,伊久美小学校,島田市,34.9288819,138.140109,,1,,0
J22209722_0,伊久美小学校,島田市,34.9289038,138.1401573,,0,J22209722,0
J22209722_1,伊久美小学校,島田市,34.9288568,138.1400679,,0,J22209722,0
J22209723,小川,島田市,34.9272964,138.1397414,,1,,0
J22209723_0,小川,島田市,34.9273348,138.1398182,,0,J22209723,0
J22209723_1,小川,島田市,34.9272744,138.1396824,,0,J22209723,0
J22209724,やまびこ,島田市,34.9267045,138.1348897,,1,,0
J22209724_0,やまびこ,島田市,34.9266143,138.1349728,,0,J22209724,0
J22209724_1,やまびこ,島田市,34.9267123,138.1349655,,0,J22209724,0
J22209725,犬間橋,島田市,34.921927,138.130737,,1,,0
J22209725_0,犬間橋,島田市,34.9219138,138.1308229,,0,J22209725,0
J22209725_1,犬間橋,島田市,34.9219163,138.1306658,,0,J22209725,0
J22209726,やまゆり,島田市,34.919929,138.1266037,,1,,0
J22209726_0,やまゆり,島田市,34.9198696,138.1265608,,0,J22209726,0
J22209726_1,やまゆり,島田市,34.9199937,138.1266461,,0,J22209726,0
J22209727,長島,島田市,34.910352,138.128166,,1,,0
J22209727_0,長島,島田市,34.9102992,138.1280882,,0,J22209727,0
J22209727_1,長島,島田市,34.910398,138.1282095,,0,J22209727,0
J22209728,川口東,島田市,34.9053206,138.1138097,,1,,0
J22209728_0,川口東,島田市,34.9052876,138.1137587,,0,J22209728,0
J22209728_1,川口東,島田市,34.9053478,138.113868,,0,J22209728,0
J22209729,伊久身幼稚園上,島田市,34.9049814,138.1119205,,1,,0
J22209729_0,伊久身幼稚園上,島田市,34.9050056,138.1120063,,0,J22209729,0
J22209729_1,伊久身幼稚園上,島田市,34.9049563,138.1118532,,0,J22209729,0
J22209730,川口,島田市,34.9030828,138.1121808,,1,,0
J22209730_0,川口,島田市,34.9031246,138.1122183,,0,J22209730,0
J22209730_1,川口,島田市,34.9030462,138.1121457,,0,J22209730,0
J22209731,山の家,島田市,34.9014372,138.1122733,,1,,0
J22209731_0,山の家,島田市,34.9013668,138.1123136,,0,J22209731,0
J22209731_1,山の家,島田市,34.9015139,138.1122449,,0,J22209731,0
J22209732,北鵜網,島田市,34.8911596,138.1191952,,1,,0
J22209732_0,北鵜網,島田市,34.8910848,138.1192703,,0,J22209732,0
J22209732_1,北鵜網,島田市,34.8912108,138.1191596,,0,J22209732,0
J22209733,鵜網,島田市,34.8889682,138.1191982,,1,,0
J22209733_0,鵜網,島田市,34.8889572,138.1192491,,0,J22209733,0
J22209733_1,鵜網,島田市,34.8888859,138.119127,,0,J22209733,0
J22209734,神座宮前,島田市,34.8787073,138.1058578,,1,,0
J22209734_0,神座宮前,島田市,34.878518,138.1060187,,0,J22209734,0
J22209734_1,神座宮前,島田市,34.8788656,138.105748,,0,J22209734,0
J22209735,上神座,島田市,34.8770283,138.1063796,,1,,0
J22209735_0,上神座,島田市,34.8772087,138.1063313,,0,J22209735,0
J22209735_1,上神座,島田市,34.8768258,138.1064651,,0,J22209735,0
J22209736,神座小学校,島田市,34.8749702,138.108899,,1,,0
J22209736_0,神座小学校,島田市,34.8750637,138.1088306,,0,J22209736,0
J22209736_1,神座小学校,島田市,34.8748888,138.1089741,,0,J22209736,0
J22209737,水神入口,島田市,34.873694,138.1115155,,1,,0
J22209737_0,水神入口,島田市,34.8736903,138.1116199,,0,J22209737,0
J22209737_1,水神入口,島田市,34.873683,138.1114055,,0,J22209737,0
J22209738,虚空蔵尊入口,島田市,34.8726832,138.1135939,,1,,0
J22209738_0,虚空蔵尊入口,島田市,34.8726832,138.1137254,,0,J22209738,0
J22209738_1,虚空蔵尊入口,島田市,34.8726913,138.113519,,0,J22209738,0
J22209739,大沢橋,島田市,34.8713642,138.1163577,,1,,0
J22209739_0,大沢橋,島田市,34.8714654,138.1163362,,0,J22209739,0
J22209739_1,大沢橋,島田市,34.8712521,138.1164989,,0,J22209739,0
J22209740,五番組公会堂,島田市,34.8705746,138.1176945,,1,,0
J22209740_0,五番組公会堂,島田市,34.8705636,138.1177937,,0,J22209740,0
J22209740_1,五番組公会堂,島田市,34.870559,138.1176683,,0,J22209740,0
J22209741,甚六,島田市,34.8688958,138.1207283,,1,,0
J22209741_0,甚六,島田市,34.8689371,138.1207127,,0,J22209741,0
J22209741_1,甚六,島田市,34.8688496,138.1207604,,0,J22209741,0
J22209742,オレンジタウン神座入口,島田市,34.8671004,138.1231589,,1,,0
J22209742_0,オレンジタウン神座入口,島田市,34.8669044,138.1234513,,0,J22209742,0
J22209742_1,オレンジタウン神座入口,島田市,34.8673138,138.1228022,,0,J22209742,0
J22209743,JA島田北支店,島田市,34.8652912,138.1256356,,1,,0
J22209743_0,JA島田北支店,島田市,34.8652912,138.1257215,,0,J22209743,0
J22209743_1,JA島田北支店,島田市,34.8652952,138.1255517,,0,J22209743,0
J22209744,渡口,島田市,34.8612354,138.1303412,,1,,0
J22209744_0,渡口,島田市,34.861231,138.1304323,,0,J22209744,0
J22209744_1,渡口,島田市,34.8612454,138.1302295,,0,J22209744,0
J22209745,相賀橋,島田市,34.8606058,138.1324519,,1,,0
J22209745_0,相賀橋,島田市,34.8606374,138.1325041,,0,J22209745,0
J22209745_1,相賀橋,島田市,34.8605495,138.1323806,,0,J22209745,0
J22209746,北中学校,島田市,34.8528152,138.1391036,,1,,0
J22209746_0,北中学校,島田市,34.8528593,138.1391197,,0,J22209746,0
J22209746_1,北中学校,島田市,34.8527626,138.1390916,,0,J22209746,0
J22209747,柳島,島田市,34.851056,138.14075,,1,,0
J22209747_0,柳島,島田市,34.8511396,138.14075,,0,J22209747,0
J22209747_1,柳島,島田市,34.8509812,138.1407446,,0,J22209747,0
J22209748,笹ヶ久保公園,島田市,34.8494796,138.142806,,1,,0
J22209748_0,笹ヶ久保公園,島田市,34.8494972,138.142924,,0,J22209748,0
J22209748_1,笹ヶ久保公園,島田市,34.8494443,138.1427041,,0,J22209748,0
J22209749,向谷水門,島田市,34.8438005,138.1453173,,1,,0
J22209749_0,向谷水門,島田市,34.8438357,138.1453495,,0,J22209749,0
J22209749_1,向谷水門,島田市,34.8437428,138.1453195,,0,J22209749,0
J22209750,向谷西,島田市,34.842203,138.147847,,1,,0
J22209750_0,向谷西,島田市,34.8422426,138.1477612,,0,J22209750,0
J22209750_1,向谷西,島田市,34.8421446,138.1479098,,0,J22209750,0
J22209751,向谷中,島田市,34.841914,138.1496297,,1,,0
J22209751_0,向谷中,島田市,34.8419536,138.1496673,,0,J22209751,0
J22209751_1,向谷中,島田市,34.8418708,138.1496271,,0,J22209751,0
J22209752,向谷四丁目南,島田市,34.841525,138.1519789,,1,,0
J22209752_0,向谷四丁目南,島田市,34.8415514,138.1520272,,0,J22209752,0
J22209752_1,向谷四丁目南,島田市,34.8414898,138.1519253,,0,J22209752,0
J22209753,第一小学校,島田市,34.8411064,138.1540554,,1,,0
J22209753_0,第一小学校,島田市,34.8411284,138.1540715,,0,J22209753,0
J22209753_1,第一小学校,島田市,34.8410792,138.1540738,,0,J22209753,0
J22209754,三ッ合橋,島田市,34.8401844,138.1566315,,1,,0
J22209754_0,三ッ合橋,島田市,34.8401932,138.1566798,,0,J22209754,0
J22209754_1,三ッ合橋,島田市,34.840158,138.1565733,,0,J22209754,0
J22209755,三ッ合町,島田市,34.839199,138.1579728,,1,,0
J22209755_0,三ッ合町,島田市,34.8392166,138.1580104,,0,J22209755,0
J22209755_1,三ッ合町,島田市,34.8391546,138.1579367,,0,J22209755,0
J22209756,若松町西,島田市,34.8379998,138.1596072,,1,,0
J22209756_0,若松町西,島田市,34.8380615,138.1596394,,0,J22209756,0
J22209756_1,若松町西,島田市,34.8379304,138.1595728,,0,J22209756,0
J22209757,若松町,島田市,34.8370885,138.1635158,,1,,0
J22209757_0,若松町,島田市,34.8371105,138.1635587,,0,J22209757,0
J22209757_1,若松町,島田市,34.8370584,138.1634671,,0,J22209757,0
J22209758,宮川町,島田市,34.8359833,138.1666018,,1,,0
J22209758_0,宮川町,島田市,34.8359481,138.1668271,,0,J22209758,0
J22209758_1,宮川町,島田市,34.8360598,138.1662942,,0,J22209758,0
J22209759,電灯小路入口,島田市,34.834823,138.169983,,1,,0
J22209759_0,電灯小路入口,島田市,34.8348714,138.1700527,,0,J22209759,0
J22209759_1,電灯小路入口,島田市,34.8348224,138.169931,,0,J22209759,0
J22209760,大井町,島田市,34.8341994,138.1719472,,1,,0
J22209760_0,大井町,島田市,34.8342699,138.1719311,,0,J22209760,0
J22209760_1,大井町,島田市,34.8341306,138.1719753,,0,J22209760,0
J22209761,上相賀,島田市,34.8921676,138.1493135,,1,,0
J22209761_0,上相賀,島田市,34.8921632,138.1493215,,0,J22209761,0
J22209762,上相賀橋,島田市,34.8909918,138.1485902,,1,,0
J22209762_0,上相賀橋,島田市,34.8907498,138.1488316,,0,J22209762,0
J22209762_1,上相賀橋,島田市,34.891084,138.1484631,,0,J22209762,0
J22209763,養徳寺入口,島田市,34.8888904,138.1484942,,1,,0
J22209763_0,養徳寺入口,島田市,34.8889168,138.1485586,,0,J22209763,0
J22209763_1,養徳寺入口,島田市,34.8888614,138.1484311,,0,J22209763,0
J22209764,西の谷橋,島田市,34.887095,138.1479784,,1,,0
J22209764_0,西の谷橋,島田市,34.887073,138.1480374,,0,J22209764,0
J22209764_1,西の谷橋,島田市,34.8870966,138.1479154,,0,J22209764,0
J22209765,後畑入口,島田市,34.8851896,138.1473129,,1,,0
J22209765_0,後畑入口,島田市,34.8851764,138.1474148,,0,J22209765,0
J22209765_1,後畑入口,島田市,34.885192,138.1471751,,0,J22209765,0
J22209766,和田,島田市,34.8838178,138.1452211,,1,,0
J22209766_0,和田,島田市,34.8838011,138.1452602,,0,J22209766,0
J22209766_1,和田,島田市,34.8838342,138.1451771,,0,J22209766,0
J22209767,和田寿公会堂,島田市,34.882529,138.1440382,,1,,0
J22209767_0,和田寿公会堂,島田市,34.8825114,138.144108,,0,J22209767,0
J22209767_1,和田寿公会堂,島田市,34.8825379,138.1439457,,0,J22209767,0
J22209768,高山,島田市,34.881287,138.142799,,1,,0
J22209768_0,高山,島田市,34.8813046,138.1428741,,0,J22209768,0
J22209768_1,高山,島田市,34.881222,138.1427231,,0,J22209768,0
J22209769,禰宜地上,島田市,34.879359,138.1410646,,1,,0
J22209769_0,禰宜地上,島田市,34.879359,138.141129,,0,J22209769,0
J22209769_1,禰宜地上,島田市,34.8793736,138.1410058,,0,J22209769,0
J22209770,禰宜地橋,島田市,34.8784684,138.139557,,1,,0
J22209770_0,禰宜地橋,島田市,34.8784288,138.1395409,,0,J22209770,0
J22209770_1,禰宜地橋,島田市,34.8785208,138.1395848,,0,J22209770,0
J22209771,寺前橋,島田市,34.876649,138.137756,,1,,0
J22209771_0,寺前橋,島田市,34.8765566,138.1377345,,0,J22209771,0
J22209771_1,寺前橋,島田市,34.8766769,138.1377768,,0,J22209771,0
J22209772,杉沢上,島田市,34.8759205,138.1364882,,1,,0
J22209772_0,杉沢上,島田市,34.8759337,138.1365526,,0,J22209772,0
J22209772_1,杉沢上,島田市,34.875911,138.1364089,,0,J22209772,0
J22209773,相賀小学校,島田市,34.87372,138.1347726,,1,,0
J22209773_0,相賀小学校,島田市,34.8737464,138.1348584,,0,J22209773,0
J22209773_1,相賀小学校,島田市,34.8736525,138.1346766,,0,J22209773,0
J22209774,杉沢下,島田市,34.872045,138.1335603,,1,,0
J22209774_0,杉沢下,島田市,34.8719878,138.1335228,,0,J22209774,0
J22209774_1,杉沢下,島田市,34.872099,138.1335923,,0,J22209774,0
J22209775,広長橋,島田市,34.8684079,138.1321161,,1,,0
J22209775_0,広長橋,島田市,34.8684255,138.1321697,,0,J22209775,0
J22209775_1,広長橋,島田市,34.8683716,138.1320689,,0,J22209775,0
J22209776,宮沢,島田市,34.8663202,138.1323075,,1,,0
J22209776_0,宮沢,島田市,34.8662674,138.1323182,,0,J22209776,0
J22209776_1,宮沢,島田市,34.8663693,138.1322728,,0,J22209776,0
J22209777,赤松発電所,島田市,34.8632612,138.1317143,,1,,0
J22209777_0,赤松発電所,島田市,34.8631908,138.1317143,,0,J22209777,0
J22209777_1,赤松発電所,島田市,34.8633323,138.1317156,,0,J22209777,0
J22209778,竜泉院,島田市,34.8437399,138.1464383,,1,,0
J22209778_0,竜泉院,島田市,34.8438059,138.1464114,,0,J22209778,0
J22209778_1,竜泉院,島田市,34.8436674,138.1464405,,0,J22209778,0
J22209779,向谷一丁目,島田市,34.8431193,138.1492828,,1,,0
J22209779_0,向谷一丁目,島田市,34.843062,138.1493257,,0,J22209779,0
J22209779_1,向谷一丁目,島田市,34.8431701,138.1493052,,0,J22209779,0
J22209780,三ッ合町西,島田市,34.841652,138.155658,,1,,0
J22209780_0,三ッ合町西,島田市,34.841718,138.1555883,,0,J22209780,0
J22209780_1,三ッ合町西,島田市,34.8416069,138.1557478,,0,J22209780,0
J22209781,三ッ合町東,島田市,34.8415242,138.1579363,,1,,0
J22209781_0,三ッ合町東,島田市,34.8415903,138.157888,,0,J22209781,0
J22209781_1,三ッ合町東,島田市,34.8414791,138.1580815,,0,J22209781,0
J22209782,中溝町西,島田市,34.8416324,138.1608553,,1,,0
J22209782_0,中溝町西,島田市,34.8416874,138.1607695,,0,J22209782,0
J22209782_1,中溝町西,島田市,34.8415847,138.1609213,,0,J22209782,0
J22209783,中溝町東,島田市,34.8418826,138.1643754,,1,,0
J22209783_0,中溝町東,島田市,34.8419222,138.1643164,,0,J22209783,0
J22209783_1,中溝町東,島田市,34.8418403,138.1644539,,0,J22209783,0
J22209784,旗指西,島田市,34.8420366,138.1689508,,1,,0
J22209784_0,旗指西,島田市,34.8420894,138.1688864,,0,J22209784,0
J22209784_1,旗指西,島田市,34.8419463,138.1690626,,0,J22209784,0
J22209785,旗指東,島田市,34.8417514,138.1716452,,1,,0
J22209785_0,旗指東,島田市,34.8418086,138.1716184,,0,J22209785,0
J22209785_1,旗指東,島田市,34.8416867,138.1716639,,0,J22209785,0
J22209786,中河町,島田市,34.8415064,138.1741781,,1,,0
J22209786_0,中河町,島田市,34.841546,138.1741942,,0,J22209786,0
J22209786_1,中河町,島田市,34.8414439,138.1741639,,0,J22209786,0
J22209787,第二中学校入口,島田市,34.8413794,138.1755141,,1,,0
J22209787_0,第二中学校入口,島田市,34.84223,138.1754,,0,J22209787,0
J22209787_1,第二中学校入口,島田市,34.8422403,138.1753002,,0,J22209787,0
J22209787_3,第二中学校入口,島田市,34.8413249,138.1762393,,0,J22209787,0
J22209787_4,第二中学校入口,島田市,34.8412152,138.176524,,0,J22209787,0
J22209788,はなみずき,島田市,34.8409562,138.1791317,,1,,0
J22209788_0,はなみずき,島田市,34.8410125,138.1789758,,0,J22209788,0
J22209788_1,はなみずき,島田市,34.8409078,138.1792389,,0,J22209788,0
J22209789,はなみずき入口,島田市,34.8401896,138.1800051,,1,,0
J22209789_0,はなみずき入口,島田市,34.840172,138.1800802,,0,J22209789,0
J22209789_1,はなみずき入口,島田市,34.8402111,138.1799629,,0,J22209789,0
J22209790,市民会館東,島田市,34.83562,138.17797,,1,,0
J22209790_0,市民会館東,島田市,34.83562,138.17797,,0,J22209790,0
J22209790_1,市民会館東,島田市,34.835646,138.178096,,0,J22209790,0
J22209791,市役所,島田市,34.835895,138.1763232,,1,,0
J22209791_0,市役所,島田市,34.8358686,138.176232,,0,J22209791,0
J22209791_1,市役所,島田市,34.835927,138.176401,,0,J22209791,0
J22209792,幸町,島田市,34.8346937,138.175119,,1,,0
J22209792_0,幸町,島田市,34.8346186,138.1751529,,0,J22209792,0
J22209792_1,幸町,島田市,34.834791,138.1750767,,0,J22209792,0
J22209793,本村,島田市,34.806319,138.177299,,1,,0
J22209793_0,本村,島田市,34.8063366,138.1771273,,0,J22209793,0
J22209794,原の平西,島田市,34.805827,138.180546,,1,,0
J22209794_0,原の平西,島田市,34.8058799,138.1806104,,0,J22209794,0
J22209795,原の平,島田市,34.804984,138.183254,,1,,0
J22209795_0,原の平,島田市,34.805028,138.183101,,0,J22209795,0
J22209795_1,原の平,島田市,34.80498,138.1833754,,0,J22209795,0
J22209796,ふれあいセンター,島田市,34.804659,138.186022,,1,,0
J22209796_0,ふれあいセンター,島田市,34.804658,138.185981,,0,J22209796,0
J22209796_1,ふれあいセンター,島田市,34.804535,138.186069,,0,J22209796,0
J22209797,下湯日西,島田市,34.80262,138.191795,,1,,0
J22209797_0,下湯日西,島田市,34.802647,138.191794,,0,J22209797,0
J22209797_1,下湯日西,島田市,34.802493,138.191818,,0,J22209797,0
J22209798,下湯日,島田市,34.801809,138.196299,,1,,0
J22209798_0,下湯日,島田市,34.801938,138.19583,,0,J22209798,0
J22209798_1,下湯日,島田市,34.801723,138.196988,,0,J22209798,0
J22209799,沼伏西,島田市,34.8020231,138.1998001,,1,,0
J22209799_0,沼伏西,島田市,34.802134,138.199918,,0,J22209799,0
J22209799_1,沼伏西,島田市,34.801869,138.199556,,0,J22209799,0
J22209800,沼伏,島田市,34.8034661,138.2038059,,1,,0
J22209800_0,沼伏,島田市,34.8035,138.203759,,0,J22209800,0
J22209800_1,沼伏,島田市,34.803482,138.203873,,0,J22209800,0
J22209801,沼伏東,島田市,34.8047101,138.205791,,1,,0
J22209801_0,沼伏東,島田市,34.804694,138.205728,,0,J22209801,0
J22209801_1,沼伏東,島田市,34.804724,138.205863,,0,J22209801,0
J22209802,色尾西,島田市,34.8042936,138.2091907,,1,,0
J22209802_0,色尾西,島田市,34.80435,138.209204,,0,J22209802,0
J22209802_1,色尾西,島田市,34.804261,138.209165,,0,J22209802,0
J22209803,月坂一丁目西,島田市,34.8036974,138.210573,,1,,0
J22209803_0,月坂一丁目西,島田市,34.803722,138.210542,,0,J22209803,0
J22209803_1,月坂一丁目西,島田市,34.803675,138.21065,,0,J22209803,0
J22209804,月坂一丁目,島田市,34.804555,138.212734,,1,,0
J22209804_0,月坂一丁目,島田市,34.804448,138.212418,,0,J22209804,0
J22209804_1,月坂一丁目,島田市,34.80454,138.212856,,0,J22209804,0
J22209805,月坂二丁目,島田市,34.805308,138.2147178,,1,,0
J22209805_0,月坂二丁目,島田市,34.8052312,138.2144361,,0,J22209805,0
J22209805_1,月坂二丁目,島田市,34.80538,138.215044,,0,J22209805,0
J22209806,初倉消防署,島田市,34.8062137,138.2170097,,1,,0
J22209806_0,初倉消防署,島田市,34.806242,138.217011,,0,J22209806,0
J22209806_1,初倉消防署,島田市,34.806162,138.217048,,0,J22209806,0
J22209807,旧初上,島田市,34.809909,138.218321,,1,,0
J22209807_0,旧初上,島田市,34.809843,138.218319,,0,J22209807,0
J22209807_1,旧初上,島田市,34.809885,138.218372,,0,J22209807,0
J22209808,旧初,島田市,34.8127872,138.216198,,1,,0
J22209808_0,旧初,島田市,34.812628,138.216229,,0,J22209808,0
J22209808_1,旧初,島田市,34.812929,138.216164,,0,J22209808,0
J22209809,旧初下,島田市,34.8143396,138.2153798,,1,,0
J22209809_0,旧初下,島田市,34.814131,138.215431,,0,J22209809,0
J22209809_1,旧初下,島田市,34.8144586,138.2153562,,0,J22209809,0
J22209810,谷口下,島田市,34.8191337,138.2123407,,1,,0
J22209810_0,谷口下,島田市,34.818901,138.212442,,0,J22209810,0
J22209810_1,谷口下,島田市,34.819336,138.212226,,0,J22209810,0
J22209811,谷口橋,島田市,34.820838,138.210537,,1,,0
J22209811_0,谷口橋,島田市,34.820826,138.210526,,0,J22209811,0
J22209811_1,谷口橋,島田市,34.820943,138.210504,,0,J22209811,0
J22209812,道悦島,島田市,34.830723,138.205186,,1,,0
J22209812_0,道悦島,島田市,34.83056,138.205395,,0,J22209812,0
J22209812_1,道悦島,島田市,34.830992,138.204859,,0,J22209812,0
J22209813,六合中学校,島田市,34.8337424,138.2038097,,1,,0
J22209813_0,六合中学校,島田市,34.8337498,138.2037308,,0,J22209813,0
J22209813_1,六合中学校,島田市,34.833735,138.203906,,0,J22209813,0
J22209814,六合消防署,島田市,34.8343162,138.2053108,,1,,0
J22209814_0,六合消防署,島田市,34.8343289,138.2052422,,0,J22209814,0
J22209814_1,六合消防署,島田市,34.834309,138.205365,,0,J22209814,0
J22209815,六合駅,島田市,34.8366494,138.2044297,,1,,0
J22209815_0,六合駅（湯日線）,島田市,34.836627,138.204737,,0,J22209815,0
J22209815_1,六合駅（六合南線）,島田市,34.83659,138.2050145,,0,J22209815,0
J22209816,天徳寺,島田市,34.871723,138.180619,,1,,0
J22209816_0,天徳寺,島田市,34.871723,138.180619,,0,J22209816,0
J22209817,大草上,島田市,34.870298,138.181641,,1,,0
J22209817_0,大草上,島田市,34.870488,138.181452,,0,J22209817,0
J22209817_1,大草上,島田市,34.870323,138.181623,,0,J22209817,0
J22209818,大草公会堂,島田市,34.867702,138.182772,,1,,0
J22209818_0,大草公会堂,島田市,34.867676,138.182753,,0,J22209818,0
J22209818_1,大草公会堂,島田市,34.867658,138.182841,,0,J22209818,0
J22209819,慶寿寺入口,島田市,34.86607,138.1833,,1,,0
J22209819_0,慶寿寺入口,島田市,34.86589,138.183271,,0,J22209819,0
J22209819_1,慶寿寺入口,島田市,34.866142,138.183383,,0,J22209819,0
J22209820,大草住宅,島田市,34.86457,138.18156,,1,,0
J22209820_0,大草住宅,島田市,34.86468,138.18169,,0,J22209820,0
J22209820_1,大草住宅,島田市,34.86462,138.18178,,0,J22209820,0
J22209821,尾川,島田市,34.863294,138.179179,,1,,0
J22209821_0,尾川,島田市,34.863165,138.178973,,0,J22209821,0
J22209821_1,尾川,島田市,34.863297,138.179226,,0,J22209821,0
J22209822,ぎんもくせい,島田市,34.861008,138.179707,,1,,0
J22209822_0,ぎんもくせい,島田市,34.86066,138.179771,,0,J22209822,0
J22209822_1,ぎんもくせい,島田市,34.860818,138.17982,,0,J22209822,0
J22209823,永福荘,島田市,34.859728,138.179899,,1,,0
J22209823_0,永福荘,島田市,34.859773,138.179902,,0,J22209823,0
J22209823_1,永福荘,島田市,34.859678,138.179997,,0,J22209823,0
J22209824,落合上,島田市,34.857858,138.180223,,1,,0
J22209824_0,落合上,島田市,34.85777,138.180247,,0,J22209824,0
J22209824_1,落合上,島田市,34.857847,138.180313,,0,J22209824,0
J22209825,大津小学校,島田市,34.855094,138.18141,,1,,0
J22209825_0,大津小学校,島田市,34.854962,138.181423,,0,J22209825,0
J22209825_1,大津小学校,島田市,34.855202,138.181378,,0,J22209825,0
J22209826,落合,島田市,34.853629,138.181943,,1,,0
J22209826_0,落合,島田市,34.853593,138.18199,,0,J22209826,0
J22209826_1,落合,島田市,34.853551,138.182076,,0,J22209826,0
J22209827,上野田公会堂,島田市,34.851646,138.182937,,1,,0
J22209827_0,上野田公会堂,島田市,34.85191,138.182628,,0,J22209827,0
J22209827_1,上野田公会堂,島田市,34.851644,138.182997,,0,J22209827,0
J22209828,上野田,島田市,34.849258,138.182877,,1,,0
J22209828_0,上野田,島田市,34.849216,138.182819,,0,J22209828,0
J22209828_1,上野田,島田市,34.849271,138.182945,,0,J22209828,0
J22209830,中央公園・ばらの丘,島田市,34.8512231,138.1746957,,1,,0
J22209830_0,中央公園・ばらの丘,島田市,34.8512096,138.174866,,0,J22209830,0
J22209830_1,中央公園・ばらの丘,島田市,34.8512228,138.1745862,,0,J22209830,0
J22209831,第二中学校,島田市,34.8446236,138.1750324,,1,,0
J22209831_0,第二中学校,島田市,34.844706,138.1750587,,0,J22209831,0
J22209831_1,第二中学校,島田市,34.8445135,138.1750222,,0,J22209831,0
J22209832,市役所西,島田市,34.8364481,138.1754801,,1,,0
J22209832_0,市役所西,島田市,34.8365176,138.1755479,,0,J22209832,0
J22209832_1,市役所西,島田市,34.8364234,138.1754183,,0,J22209832,0
J22209833,本通三丁目東,島田市,34.8327828,138.1760714,,1,,0
J22209833_0,本通三丁目東,島田市,34.83275,138.175958,,0,J22209833,0
J22209833_1,本通三丁目東,島田市,34.832816,138.176165,,0,J22209833,0
J22209834,本通五丁目,島田市,34.832565,138.1784507,,1,,0
J22209834_0,本通五丁目,島田市,34.8324415,138.178573,,0,J22209834,0
J22209834_1,本通五丁目,島田市,34.8326205,138.1783322,,0,J22209834,0
J22209835,本通六丁目,島田市,34.8322998,138.1805564,,1,,0
J22209835_0,本通六丁目,島田市,34.8322331,138.1806545,,0,J22209835,0
J22209835_1,本通六丁目,島田市,34.8323675,138.1804879,,0,J22209835,0
J22209836,島田商業高校,島田市,34.833103,138.184097,,1,,0
J22209836_0,島田商業高校,島田市,34.8330208,138.1839895,,0,J22209836,0
J22209836_1,島田商業高校,島田市,34.8331775,138.184195,,0,J22209836,0
J22209837,本通七丁目東,島田市,34.833672,138.186462,,1,,0
J22209837_0,本通七丁目東,島田市,34.8336857,138.186539,,0,J22209837,0
J22209837_1,本通七丁目東,島田市,34.8337036,138.186341,,0,J22209837,0
J22209838,御仮屋,島田市,34.8347206,138.1903641,,1,,0
J22209838_0,御仮屋,島田市,34.8346837,138.190437,,0,J22209838,0
J22209838_1,御仮屋,島田市,34.8347821,138.1902616,,0,J22209838,0
J22209839,栃山橋,島田市,34.835934,138.197433,,1,,0
J22209839_0,栃山橋,島田市,34.8359091,138.1975676,,0,J22209839,0
J22209839_1,栃山橋,島田市,34.8360435,138.197362,,0,J22209839,0
J22209840,栃山,島田市,34.8366002,138.199406,,1,,0
J22209840_0,栃山,島田市,34.8366078,138.1994959,,0,J22209840,0
J22209840_1,栃山,島田市,34.836605,138.1993013,,0,J22209840,0
J22209841,島田工業高校,島田市,34.8376609,138.2025196,,1,,0
J22209841_0,島田工業高校,島田市,34.8376336,138.2026423,,0,J22209841,0
J22209841_1,島田工業高校,島田市,34.8376926,138.2024359,,0,J22209841,0
J22209842,伊太和里の湯,島田市,34.8724715,138.1559635,,1,,0
J22209842_0,伊太和里の湯,島田市,34.8724715,138.1559581,,0,J22209842,0
J22209842_1,伊太和里の湯,島田市,34.87248,138.15592,,0,J22209842,0
J22209843,田代環境プラザ,島田市,34.869144,138.1527388,,1,,0
J22209843_0,田代環境プラザ,島田市,34.8690824,138.1527228,,0,J22209843,0
J22209843_1,田代環境プラザ,島田市,34.8692318,138.1527598,,0,J22209843,0
J22209844,玉雲寺西,島田市,34.8618345,138.1470218,,1,,0
J22209844_0,玉雲寺西,島田市,34.8619136,138.1470594,,0,J22209844,0
J22209844_1,玉雲寺西,島田市,34.8617427,138.1470193,,0,J22209844,0
J22209845,上伊太公会堂,島田市,34.8596722,138.1471968,,1,,0
J22209845_0,上伊太公会堂,島田市,34.8597073,138.147245,,0,J22209845,0
J22209845_1,上伊太公会堂,島田市,34.8595995,138.147154,,0,J22209845,0
J22209846,上伊太下,島田市,34.8567343,138.1479348,,1,,0
J22209846_0,上伊太下,島田市,34.8567828,138.1479616,,0,J22209846,0
J22209846_1,上伊太下,島田市,34.856663,138.147921,,0,J22209846,0
J22209847,小山田橋,島田市,34.8533247,138.1509528,,1,,0
J22209847_0,小山田橋,島田市,34.8533291,138.1509152,,0,J22209847,0
J22209847_1,小山田橋,島田市,34.853309,138.1510107,,0,J22209847,0
J22209848,伊太団地,島田市,34.8546837,138.153207,,1,,0
J22209848_0,伊太団地,島田市,34.8546793,138.1532875,,0,J22209848,0
J22209848_1,伊太団地,島田市,34.854691,138.153162,,0,J22209848,0
J22209849,伊太団地南,島田市,34.8523668,138.1538247,,1,,0
J22209849_0,伊太団地南,島田市,34.8524284,138.1538408,,0,J22209849,0
J22209849_1,伊太団地南,島田市,34.8523094,138.1537955,,0,J22209849,0
J22209850,島田樟誠高校,島田市,34.8485747,138.1537067,,1,,0
J22209850_0,島田樟誠高校,島田市,34.8486363,138.1537121,,0,J22209850,0
J22209850_1,島田樟誠高校,島田市,34.8485061,138.1537094,,0,J22209850,0
J22209851,向谷元町,島田市,34.8447214,138.1565607,,1,,0
J22209851_0,向谷元町,島田市,34.8447787,138.1565929,,0,J22209851,0
J22209851_1,向谷元町,島田市,34.8446451,138.1565362,,0,J22209851,0
J22209858,島中,島田市,34.840815,138.123726,,1,,0
J22209858_0,島中,島田市,34.8407534,138.1238333,,0,J22209858,0
J22209858_1,島中,島田市,34.8408766,138.1238564,,0,J22209858,0
J22209859,エコトープ前,島田市,34.8421481,138.1264203,,1,,0
J22209859_0,エコトープ前,島田市,34.8420512,138.1265168,,0,J22209859,0
J22209859_1,エコトープ前,島田市,34.8421968,138.1263187,,0,J22209859,0
J22209860,夢づくり会館,島田市,34.8432489,138.1249288,,1,,0
J22209860_0,夢づくり会館,島田市,34.8432577,138.1249181,,0,J22209860,0
J22209860_1,夢づくり会館,島田市,34.84307,138.12496,,0,J22209860,0
J22209862,グループホームひぎり,島田市,34.837352,138.124131,,1,,0
J22209862_0,グループホームひぎり,島田市,34.8373344,138.1242168,,0,J22209862,0
J22209862_1,グループホームひぎり,島田市,34.8373007,138.1241247,,0,J22209862,0
J22209863,金谷庁舎前,島田市,34.8347714,138.1261655,,1,,0
J22209863_0,金谷庁舎前,島田市,34.8347714,138.1261655,,0,J22209863,0
J22209864,栄代橋西,島田市,34.83122,138.12788,,1,,0
J22209864_0,栄代橋西,島田市,34.8313081,138.1279444,,0,J22209864,0
J22209864_1,栄代橋西,島田市,34.8311936,138.1277942,,0,J22209864,0
J22209866,中町,島田市,34.8249856,138.1310287,,1,,0
J22209866_0,中町,島田市,34.8249988,138.1310931,,0,J22209866,0
J22209866_1,中町,島田市,34.824976,138.1309532,,0,J22209866,0
J22209867,金谷本町,島田市,34.8231514,138.1293075,,1,,0
J22209867_0,金谷本町,島田市,34.8233364,138.1297474,,0,J22209867,0
J22209867_1,金谷本町,島田市,34.822792,138.1287699,,0,J22209867,0
J22209868,栗島公民館,島田市,34.8651648,138.0788763,,1,,0
J22209868_0,栗島公民館,島田市,34.8651891,138.0789112,,0,J22209868,0
J22209868_1,栗島公民館,島田市,34.865139,138.0788408,,0,J22209868,0
J22209869,岡穂平公民館,島田市,34.8592207,138.0834545,,1,,0
J22209869_0,岡穂平公民館,島田市,34.8592823,138.0834975,,0,J22209869,0
J22209869_1,岡穂平公民館,島田市,34.859163,138.083414,,0,J22209869,0
J22209870,五和製茶前,島田市,34.8558387,138.0833598,,1,,0
J22209870_0,五和製茶前,島田市,34.8558211,138.0834242,,0,J22209870,0
J22209870_1,五和製茶前,島田市,34.855853,138.083317,,0,J22209870,0
J22209871,宮ノ上,島田市,34.8527333,138.0841583,,1,,0
J22209871_0,宮ノ上,島田市,34.8527465,138.0842119,,0,J22209871,0
J22209871_1,宮ノ上,島田市,34.8527494,138.0841002,,0,J22209871,0
J22209872,四分一,島田市,34.850528,138.0877886,,1,,0
J22209872_0,四分一,島田市,34.850528,138.0877189,,0,J22209872,0
J22209872_1,四分一,島田市,34.8505368,138.0878423,,0,J22209872,0
J22209873,童子沢入口,島田市,34.8507763,138.0953551,,1,,0
J22209873_0,童子沢入口,島田市,34.8508291,138.095323,,0,J22209873,0
J22209873_1,童子沢入口,島田市,34.8507202,138.0953768,,0,J22209873,0
J22209874,なでしこ公民館,島田市,34.8490641,138.0983286,,1,,0
J22209874_0,なでしこ公民館,島田市,34.8491037,138.0983018,,0,J22209874,0
J22209874_1,なでしこ公民館,島田市,34.8490126,138.0983694,,0,J22209874,0
J22209875,影島,島田市,34.8462402,138.1051869,,1,,0
J22209875_0,影島,島田市,34.8462842,138.1051708,,0,J22209875,0
J22209875_1,影島,島田市,34.8461816,138.105226,,0,J22209875,0
J22209876,向川公民館,島田市,34.844789,138.1101183,,1,,0
J22209876_0,向川公民館,島田市,34.8448286,138.1100968,,0,J22209876,0
J22209876_1,向川公民館,島田市,34.8447374,138.110139,,0,J22209876,0
J22209877,堤間団地東,島田市,34.8442874,138.1167089,,1,,0
J22209877_0,堤間団地東,島田市,34.8443182,138.1167518,,0,J22209877,0
J22209877_1,堤間団地東,島田市,34.8442439,138.1166839,,0,J22209877,0
J222098771,金谷北支所南,,34.8455959,138.1209111,,1,,0
J222098771_0,金谷北支所南0,,34.8456884,138.1208843,,0,J222098771,0
J222098771_1,金谷北支所南,,34.8456553,138.1208011,,0,J222098771,0
J22209878,番生寺,島田市,34.839374,138.118149,,1,,0
J22209878_0,番生寺,島田市,34.8394092,138.1181812,,0,J22209878,0
J22209878_1,番生寺,島田市,34.8394444,138.1181168,,0,J22209878,0
J22209879,金谷消防署,島田市,34.840178,138.121192,,1,,0
J22209879_0,金谷消防署,島田市,34.840198,138.121152,,0,J22209879,0
J22209879_1,金谷消防署,島田市,34.840178,138.121192,,0,J22209879,0
J22209880,金谷北地域交流センター,島田市,34.8466125,138.121297,,1,,0
J22209880_0,金谷北地域交流センター,島田市,34.8467005,138.121297,,0,J22209880,0
J22209880_1,金谷北地域交流センター,島田市,34.8464364,138.1213344,,0,J22209880,0
J22209881,猪土居北,島田市,34.811396,138.134111,,1,,0
J22209881_0,猪土居北,島田市,34.811396,138.134111,,0,J22209881,0
J22209881_1,猪土居北,島田市,34.811601,138.134092,,0,J22209881,0
J22209882,お茶の郷,島田市,34.814404,138.1338482,,1,,0
J22209882_0,お茶の郷,島田市,34.8145097,138.1337516,,0,J22209882,0
J22209882_1,お茶の郷,島田市,34.814345,138.134032,,0,J22209882,0
J22209883,諏訪原城跡,島田市,34.815905,138.118051,,1,,0
J22209883_0,諏訪原城跡,島田市,34.8160195,138.1179974,,0,J22209883,0
J22209883_1,諏訪原城跡,島田市,34.8158909,138.1182073,,0,J22209883,0
J22209884,菊翠茶農協前,島田市,34.822618,138.102729,,1,,0
J22209884_1,菊翠茶農協前,島田市,34.8226286,138.1025868,,0,J22209884,0
J22209885,菊川の里会館,島田市,34.818988,138.108699,,1,,0
J22209885_1,菊川の里会館,島田市,34.819009,138.108761,,0,J22209885,0
J22209886,松島,島田市,34.810919,138.115125,,1,,0
J22209886_1,松島,島田市,34.810936,138.115193,,0,J22209886,0
J22209887,神谷城保育園前,島田市,34.806865,138.119527,,1,,0
J22209887_1,神谷城保育園前,島田市,34.806954,138.119468,,0,J22209887,0
J22209888,神谷城西公民館前,島田市,34.8061329,138.1191175,,1,,0
J22209888_1,神谷城西公民館前,島田市,34.8061171,138.1191511,,0,J22209888,0
J22209889,浅川橋南,島田市,34.802535,138.121078,,1,,0
J22209889_1,浅川橋南,島田市,34.8025413,138.12119,,0,J22209889,0
J22209890,石神,島田市,34.796246,138.1236787,,1,,0
J22209890_1,石神,島田市,34.7962593,138.1237701,,0,J22209890,0
J22209891,石神上,島田市,34.8040826,138.1243841,,1,,0
J22209891_1,石神上,島田市,34.8041533,138.1243815,,0,J22209891,0
J22209894,東町,島田市,34.826717,138.137324,,1,,0
J22209894_0,東町,島田市,34.826717,138.137324,,0,J22209894,0
J22209895,東町中,島田市,34.826669,138.139022,,1,,0
J22209895_0,東町中,島田市,34.826669,138.139022,,0,J22209895,0
J22209897,栄町,島田市,34.8272695,138.1293467,,1,,0
J22209897_0,栄町,島田市,34.827221,138.1294272,,0,J22209897,0
J22209897_1,栄町,島田市,34.8273312,138.1292771,,0,J22209897,0
J22209898,栄町公会堂前,島田市,34.8295834,138.1280867,,1,,0
J22209898_0,栄町公会堂前,島田市,34.829557,138.1281511,,0,J22209898,0
J22209898_1,栄町公会堂前,島田市,34.8296086,138.1280192,,0,J22209898,0
J22209899,金谷中入口,島田市,34.832026,138.1266881,,1,,0
J22209899_0,金谷中入口,島田市,34.832026,138.1267364,,0,J22209899,0
J22209899_1,金谷中入口,島田市,34.8320393,138.1266344,,0,J22209899,0
J22209900,日切,島田市,34.840004,138.12532,,1,,0
J22209900_0,日切,島田市,34.839974,138.12532,,0,J22209900,0
J22209900_1,日切,島田市,34.840004,138.12532,,0,J22209900,0
J22209901,家山駅前,島田市,34.9407954,138.0777883,,1,,0
J22209901_0,家山駅前,島田市,34.9407954,138.0777883,,0,J22209901,0
J22209901_1,家山駅前,島田市,34.9406757,138.0777145,,0,J22209901,0
J222099011,川根庁舎前,島田市,34.93972,138.07705,,1,,0
J222099011_0,川根庁舎前,島田市,34.93972,138.07705,,0,J222099011,0
J22209902,家山駅入口,島田市,34.9410394,138.0763973,,1,,0
J22209902_0,家山駅入口,島田市,34.9410702,138.0764054,,0,J22209902,0
J22209902_1,家山駅入口,島田市,34.9410118,138.0763843,,0,J22209902,0
J22209903,家山,島田市,34.943449,138.076505,,1,,0
J22209903_0,家山,島田市,34.943449,138.076505,,0,J22209903,0
J22209903_1,家山,島田市,34.943499,138.076411,,0,J22209903,0
J22209904,高木医院前,島田市,34.941492,138.086204,,1,,0
J22209904_0,高木医院前,島田市,34.941492,138.086204,,0,J22209904,0
J22209904_1,高木医院前,島田市,34.941562,138.086128,,0,J22209904,0
J22209905,デイサービスセンター前,島田市,34.9384257,138.0861151,,1,,0
J22209905_0,デイサービスセンター前,島田市,34.9380288,138.08604,,0,J22209905,0
J22209905_1,デイサービスセンター前,島田市,34.9384089,138.0861132,,0,J22209905,0
J22209905_2,デイサービスセンター前,島田市,34.9379777,138.0860558,,0,J22209905,0
J22209906,身成北,島田市,34.945728,138.0890283,,1,,0
J22209906_0,身成北,島田市,34.945717,138.0890793,,0,J22209906,0
J22209906_1,身成北,島田市,34.945772,138.089004,,0,J22209906,0
J22209907,川根温泉前・川根温泉ホテル,島田市,34.9599787,138.0899126,,1,,0
J22209907_0,川根温泉前・川根温泉ホテル,島田市,34.9599743,138.0899179,,0,J22209907,0
J22209908,笹間渡駅前,島田市,34.9626737,138.0863802,,1,,0
J22209908_0,笹間渡駅前,島田市,34.962722,138.0864017,,0,J22209908,0
J22209908_1,笹間渡駅前,島田市,34.9626031,138.0863724,,0,J22209908,0
J22209909,村上,島田市,34.9759923,138.0983146,,1,,0
J22209909_0,村上,島田市,34.9759528,138.0982986,,0,J22209909,0
J22209909_1,村上,島田市,34.9760541,138.0983109,,0,J22209909,0
J22209910,丸山,島田市,34.976523,138.10465,,1,,0
J22209910_0,丸山,島田市,34.976479,138.104768,,0,J22209910,0
J22209910_1,丸山,島田市,34.976634,138.104754,,0,J22209910,0
J22209911,五軒屋,島田市,34.9806172,138.110018,,1,,0
J22209911_0,五軒屋,島田市,34.9805996,138.1100931,,0,J22209911,0
J22209911_1,五軒屋,島田市,34.9806692,138.1099461,,0,J22209911,0
J22209912,桑の山,島田市,34.983545,138.116943,,1,,0
J22209912_0,桑の山,島田市,34.9835714,138.1171254,,0,J22209912,0
J22209912_1,桑の山,島田市,34.983526,138.11677,,0,J22209912,0
J22209913,日向,島田市,34.989004,138.122495,,1,,0
J22209913_0,日向,島田市,34.9890392,138.1226774,,0,J22209913,0
J22209913_1,日向,島田市,34.9889942,138.1223376,,0,J22209913,0
J22209914,高日向,島田市,34.9882675,138.1281002,,1,,0
J22209914_0,高日向,島田市,34.9881357,138.1279822,,0,J22209914,0
J22209914_1,高日向,島田市,34.988378,138.128185,,0,J22209914,0
J22209915,三並,島田市,34.99222,138.134971,,1,,0
J22209915_0,三並,島田市,34.9921145,138.1349066,,0,J22209915,0
J22209915_1,三並,島田市,34.9921892,138.1348798,,0,J22209915,0
J22209916,竹島,島田市,35.0023725,138.1380187,,1,,0
J22209916_0,竹島,島田市,35.0023594,138.1380777,,0,J22209916,0
J22209916_1,竹島,島田市,35.0023706,138.1379382,,0,J22209916,0
J22209917,出本,島田市,35.006796,138.144586,,1,,0
J22209917_0,出本,島田市,35.006796,138.1447469,,0,J22209917,0
J22209917_1,出本,島田市,35.0068173,138.1444714,,0,J22209917,0
J22209918,和井中,島田市,35.0088928,138.1462282,,1,,0
J22209918_0,和井中,島田市,35.0088576,138.1463569,,0,J22209918,0
J22209918_1,和井中,島田市,35.008909,138.1461134,,0,J22209918,0
J22209919,下村,島田市,35.0119098,138.1450071,,1,,0
J22209919_0,下村,島田市,35.0118834,138.1451358,,0,J22209919,0
J22209919_1,下村,島田市,35.011967,138.144922,,0,J22209919,0
J22209920,西久保,島田市,35.0145342,138.1442654,,1,,0
J22209920_0,西久保,島田市,35.0144639,138.1443941,,0,J22209920,0
J22209920_1,西久保,島田市,35.0145327,138.1441497,,0,J22209920,0
J22209921,粟原下,島田市,35.0275136,138.1507176,,1,,0
J22209921_0,粟原下,島田市,35.0275136,138.1508035,,0,J22209921,0
J22209921_1,粟原下,島田市,35.0275048,138.1506318,,0,J22209921,0
J22209922,粟原,島田市,35.0286796,138.1537327,,1,,0
J22209922_0,粟原,島田市,35.0286181,138.153722,,0,J22209922,0
J22209922_1,粟原,島田市,35.0287499,138.1537757,,0,J22209922,0
J22209923,下二俣,島田市,35.0277051,138.1582959,,1,,0
J22209923_0,下二俣,島田市,35.0276964,138.1583496,,0,J22209923,0
J22209923_1,下二俣,島田市,35.027677,138.158226,,0,J22209923,0
J22209924,中の瀬,島田市,35.0298822,138.1600807,,1,,0
J22209924_0,中の瀬,島田市,35.0298822,138.1601343,,0,J22209924,0
J22209924_1,中の瀬,島田市,35.0298949,138.1600236,,0,J22209924,0
J22209925,篠上公民館前,島田市,35.0311484,138.161358,,1,,0
J22209925_0,篠上公民館前0,島田市,35.0311309,138.1614331,,0,J22209925,0
J22209925_1,篠上公民館前1,島田市,35.031134,138.1612734,,0,J22209925,0
J22209926,上二俣,島田市,35.0343814,138.1631694,,1,,0
J22209926_0,上二俣0,島田市,35.0343463,138.1632016,,0,J22209926,0
J22209926_1,上二俣1,島田市,35.0344105,138.1631346,,0,J22209926,0
J22209927,久野,島田市,35.0356118,138.1670381,,1,,0
J22209927_0,久野0,島田市,35.0355788,138.1670273,,0,J22209927,0
J22209927_1,久野1,島田市,35.0356278,138.1670589,,0,J22209927,0
J22209928,日掛,島田市,35.0380483,138.17075,,1,,0
J22209928_0,日掛0,島田市,35.0380483,138.1707499,,0,J22209928,0
J22209929,道悦四丁目,島田市,34.835214,138.207324,,1,,0
J22209929_0,道悦四丁目,島田市,34.835214,138.207324,,0,J22209929,0
J22209929_1,道悦四丁目,島田市,34.83543,138.207428,,0,J22209929,0
J22209930,六合小学校,島田市,34.8361094,138.2100701,,1,,0
J22209930_0,六合小学校,島田市,34.836083,138.2100164,,0,J22209930,0
J22209930_1,六合小学校,島田市,34.836192,138.209971,,0,J22209930,0
J22209931,細島橋,島田市,34.836249,138.21242,,1,,0
J22209931_0,細島橋,島田市,34.836205,138.2124415,,0,J22209931,0
J22209931_1,細島橋,島田市,34.836337,138.212369,,0,J22209931,0
J22209932,北島公園入口,島田市,34.8368824,138.2156229,,1,,0
J22209932_1,北島公園入口,島田市,34.836874,138.215523,,0,J22209932,0
J22209933,北島東公園入口,島田市,34.8383874,138.2189903,,1,,0
J22209933_1,北島東公園入口,島田市,34.838419,138.21894,,0,J22209933,0
J22209934,陣屋橋西,島田市,34.839418,138.221357,,1,,0
J22209934_1,陣屋橋西,島田市,34.839498,138.221338,,0,J22209934,0
J22209935,全仲寺東,島田市,34.838743,138.2245,,1,,0
J22209935_1,全仲寺東,島田市,34.838688,138.224621,,0,J22209935,0
J22209936,東町四丁目,島田市,34.836796,138.225819,,1,,0
J22209936_1,東町四丁目,島田市,34.836878,138.225812,,0,J22209936,0
J22209937,さくら入口,島田市,34.8354171,138.2267738,,1,,0
J22209937_1,さくら入口,島田市,34.8354909,138.2267564,,0,J22209937,0
J22209938,六合東小学校東,島田市,34.8343999,138.2251035,,1,,0
J22209938_0,六合東小学校東,島田市,34.8343515,138.2251303,,0,J22209938,0
J22209939,六合東小学校南,島田市,34.83328,138.222383,,1,,0
J22209939_0,六合東小学校南,島田市,34.8332184,138.2224098,,0,J22209939,0
J22209940,細島,島田市,34.833922,138.218568,,1,,0
J22209940_0,細島,島田市,34.8339154,138.2185009,,0,J22209940,0
J22209941,消防団詰所北,島田市,34.834617,138.2166309,,1,,0
J22209941_0,消防団詰所北,島田市,34.8345685,138.2166578,,0,J22209941,0
J22209943,島田南幼稚園,島田市,34.828699,138.176794,,1,,0
J22209943_0,島田南幼稚園,島田市,34.828699,138.176794,,0,J22209943,0
J22209943_1,島田南幼稚園,島田市,34.828792,138.1766791,,0,J22209943,0
J22209944,南町公会堂,島田市,34.8287965,138.1808046,,1,,0
J22209944_0,南町公会堂,島田市,34.8287612,138.1809333,,0,J22209944,0
J22209944_1,南町公会堂,島田市,34.828842,138.180703,,0,J22209944,0
J22209945,宝来町,島田市,34.8288229,138.1828923,,1,,0
J22209945_0,宝来町,島田市,34.8287876,138.1828226,,0,J22209945,0
J22209945_1,宝来町,島田市,34.8288712,138.1829614,,0,J22209945,0
J22209946,旭町西,島田市,34.8298608,138.1866542,,1,,0
J22209946_0,旭町西,島田市,34.82983,138.1867562,,0,J22209946,0
J22209946_1,旭町西,島田市,34.8299078,138.1865395,,0,J22209946,0
J22209947,旭町中,島田市,34.8298056,138.1887952,,1,,0
J22209947_0,旭町中,島田市,34.8297616,138.1889078,,0,J22209947,0
J22209947_1,旭町中,島田市,34.829857,138.188648,,0,J22209947,0
J22209948,旭町東,島田市,34.8320268,138.1908571,,1,,0
J22209948_0,旭町東,島田市,34.8319739,138.1908034,,0,J22209948,0
J22209948_1,旭町東,島田市,34.8320721,138.1909245,,0,J22209948,0
J22209949,御仮屋南,島田市,34.8341837,138.1910001,,1,,0
J22209949_0,御仮屋南,島田市,34.8342453,138.1909572,,0,J22209949,0
J22209949_1,御仮屋南,島田市,34.8340848,138.1910643,,0,J22209949,0
J22209950,八六橋,島田市,34.8366786,138.1908425,,1,,0
J22209950_0,八六橋,島田市,34.83652,138.1908103,,0,J22209950,0
J22209950_1,八六橋,島田市,34.836812,138.1909058,,0,J22209950,0
J22209951,千歳橋,島田市,34.8386986,138.1894688,,1,,0
J22209951_0,千歳橋,島田市,34.8386458,138.1894259,,0,J22209951,0
J22209951_1,千歳橋,島田市,34.8387276,138.1895137,,0,J22209951,0
J22209952,元島田公園東,島田市,34.8396038,138.1856811,,1,,0
J22209952_0,元島田公園東,島田市,34.839548,138.185607,,0,J22209952,0
J22209952_1,元島田公園東,島田市,34.8396124,138.1857156,,0,J22209952,0
J22209953,元島田西,島田市,34.8404054,138.1820791,,1,,0
J22209953_0,元島田西,島田市,34.840374,138.182039,,0,J22209953,0
J22209953_1,元島田西,島田市,34.8404406,138.1821275,,0,J22209953,0
J22209954,島田年金事務所,島田市,34.8349036,138.17838,,1,,0
J22209954_0,島田年金事務所,島田市,34.8349652,138.1784604,,0,J22209954,0
J22209954_1,島田年金事務所,島田市,34.8348108,138.1782997,,0,J22209954,0
J22209955,ぴ～ファイブ西,島田市,34.8333404,138.1780231,,1,,0
J22209955_0,ぴ～ファイブ西,島田市,34.833402,138.178125,,0,J22209955,0
J22209955_1,ぴ〜ファイブ西,島田市,34.833371,138.1779724,,0,J22209955,0
J22209956,本通一丁目,島田市,34.832748,138.173297,,1,,0
J22209956_1,本通一丁目,島田市,34.832748,138.173297,,0,J22209956,0
J22209966,向谷四丁目北,島田市,34.8424308,138.1522724,,1,,0
J22209966_0,向谷四丁目北,島田市,34.8424608,138.1523303,,0,J22209966,0
J22209966_1,向谷四丁目北,島田市,34.8423996,138.1522232,,0,J22209966,0
n1351,中港,焼津市,34.871363,138.322367,,1,,0
n1351_0,中港,焼津市,34.871474,138.322372,,0,n1351,1
n1351_1,中港,焼津市,34.87136,138.322404,,0,n1351,1
n1352,市役所前,焼津市,34.865668,138.323261,,1,,0
n1352_0,市役所前,焼津市,34.865817,138.323223,,0,n1352,1
n1352_1,市役所前,焼津市,34.865755,138.323137,,0,n1352,1
n1353,北浜通,焼津市,34.863091,138.324162,,1,,0
n1353_0,北浜通,焼津市,34.863697,138.324247,,0,n1353,0
n1353_1,北浜通,焼津市,34.863732,138.324172,,0,n1353,0
n1354,横町,焼津市,34.86068,138.323842,,1,,0
n1354_0,横町,焼津市,34.860717,138.323879,,0,n1354,0
n1354_1,横町,焼津市,34.860673,138.323793,,0,n1354,0
n1355,アクアスやいづ,焼津市,34.856961,138.325495,,1,,0
n1355_0,アクアスやいづ,焼津市,34.856873,138.326371,,0,n1355,1
n1356,田子乃橋,焼津市,34.857877,138.322249,,1,,0
n1356_0,田子乃橋,焼津市,34.857748,138.322337,,0,n1356,1
n1356_1,田子乃橋,焼津市,34.857796,138.32275,,0,n1356,1
n1357,保健センター,焼津市,34.858949,138.315066,,1,,0
n1357_0,保健センター,焼津市,34.858845,138.315583,,0,n1357,1
n1357_1,保健センター,焼津市,34.858951,138.315621,,0,n1357,1
n1358,西小川一丁目,焼津市,34.860498,138.309933,,1,,0
n1358_0,西小川一丁目,焼津市,34.860073,138.310605,,0,n1358,1
n1358_1,西小川一丁目,焼津市,34.860143,138.310702,,0,n1358,1
n1359,竪小路団地,焼津市,34.857775,138.307229,,1,,0
n1359_0,竪小路団地,焼津市,34.857816,138.307338,,0,n1359,1
n1359_1,竪小路団地,焼津市,34.857882,138.307268,,0,n1359,1
n1360,西小川四丁目,焼津市,34.854491,138.304761,,1,,0
n1360_0,西小川四丁目,焼津市,34.854344,138.304715,,0,n1360,1
n1360_1,西小川四丁目,焼津市,34.854459,138.304672,,0,n1360,1
n1361,泓の川,焼津市,34.854196,138.300477,,1,,0
n1361_0,泓の川,焼津市,34.854218,138.30138,,0,n1361,1
n1361_1,泓の川,焼津市,34.854302,138.30138,,0,n1361,1
n1362,三右衛門新田,焼津市,34.84813,138.29986,,1,,0
n1362_0,三右衛門新田,焼津市,34.848132,138.299862,,0,n1362,1
n1362_1,三右衛門新田,焼津市,34.8484,138.299556,,0,n1362,1
n1363,祢宜島配水場,焼津市,34.84225,138.303546,,1,,0
n1363_0,祢宜島配水場,焼津市,34.842417,138.303131,,0,n1363,1
n1363_1,祢宜島配水場,焼津市,34.842267,138.302836,,0,n1363,1
n1364,祢宜島,焼津市,34.840557,138.308131,,1,,0
n1364_0,祢宜島,焼津市,34.840738,138.308054,,0,n1364,1
n1364_1,祢宜島,焼津市,34.840818,138.308126,,0,n1364,1
n1365,道原,焼津市,34.836215,138.301757,,1,,0
n1365_0,道原,焼津市,34.836153,138.301845,,0,n1365,0
n1365_1,道原,焼津市,34.836193,138.301968,,0,n1365,0
n1366,河原中,焼津市,34.830523,138.292595,,1,,0
n1366_0,河原中,焼津市,34.830471,138.292602,,0,n1366,0
n1366_1,河原中,焼津市,34.830577,138.292575,,0,n1366,1
n1367,木屋川,焼津市,34.829638,138.291086,,1,,0
n1367_0,木屋川,焼津市,34.829618,138.290958,,0,n1367,1
n1367_1,木屋川,焼津市,34.829684,138.291017,,0,n1367,1
n1368,中根新田,焼津市,34.83026,138.286737,,1,,0
n1368_0,中根新田,焼津市,34.830191,138.286803,,0,n1368,1
n1368_1,中根新田,焼津市,34.830226,138.286926,,0,n1368,1
n1369,中新田配水場,焼津市,34.835293,138.285392,,1,,0
n1369_0,中新田配水場,焼津市,34.834996,138.285398,,0,n1369,0
n1369_1,中新田配水場,焼津市,34.83493,138.285489,,0,n1369,1
n1370,中新田,焼津市,34.841254,138.28517,,1,,0
n1370_0,中新田,焼津市,34.841414,138.2851,,0,n1370,1
n1370_1,中新田,焼津市,34.84133,138.285207,,0,n1370,1
n1371,大住,焼津市,34.844947,138.284399,,1,,0
n1371_0,大住,焼津市,34.84499,138.284296,,0,n1371,1
n1371_1,大住,焼津市,34.844805,138.284414,,0,n1371,0
n1372,大住北,焼津市,34.849551,138.283942,,1,,0
n1372_0,大住北,焼津市,34.849678,138.283845,,0,n1372,1
n1372_1,大住北,焼津市,34.849674,138.283958,,0,n1372,1
n1373,小柳津,焼津市,34.853619,138.283628,,1,,0
n1373_0,小柳津,焼津市,34.853752,138.283528,,0,n1373,1
n1373_1,小柳津,焼津市,34.853818,138.283641,,0,n1373,1
n1374,柳新屋,焼津市,34.856711,138.283322,,1,,0
n1374_0,柳新屋,焼津市,34.856534,138.283297,,0,n1374,1
n1374_1,柳新屋,焼津市,34.856446,138.283383,,0,n1374,1
n1375,柳新屋東,焼津市,34.858855,138.291254,,1,,0
n1375_0,柳新屋東,焼津市,34.858816,138.290249,,0,n1375,0
n1375_1,柳新屋東,焼津市,34.858776,138.29026,,0,n1375,0
n1376,五ヶ堀之内南,焼津市,34.859225,138.29697,,1,,0
n1376_0,五ケ堀之内南,焼津市,34.859251,138.296883,,0,n1376,0
n1376_1,五ケ堀之内南,焼津市,34.859194,138.29691,,0,n1376,0
n1377,三ヶ名西,焼津市,34.859396,138.300002,,1,,0
n1377_0,三ケ名西,焼津市,34.859416,138.299673,,0,n1377,1
n1377_1,三ケ名西,焼津市,34.859359,138.299442,,0,n1377,0
n1378,三ヶ名東,焼津市,34.86083,138.304777,,1,,0
n1378_0,三ケ名東,焼津市,34.860839,138.304665,,0,n1378,1
n1378_1,三ケ名東,焼津市,34.860839,138.304799,,0,n1378,1
n1379,文化センター前,焼津市,34.864279,138.30639,,1,,0
n1379_0,文化センター前,焼津市,34.864342,138.3065,,0,n1379,1
n1379_1,文化センター前,焼津市,34.864276,138.30664,,0,n1379,0
n1380,西小学校前,焼津市,34.865653,138.31091,,1,,0
n1380_0,西小学校前,焼津市,34.8657922,138.3109887,,0,n1380,0
n1380_1,西小学校前,焼津市,34.8656955,138.3111016,,0,n1380,1
n1381,焼津一丁目,焼津市,34.867695,138.313957,,1,,0
n1381_0,焼津一丁目,焼津市,34.867548,138.3134862,,0,n1381,0
n1381_1,焼津一丁目,焼津市,34.8677632,138.3142589,,0,n1381,0
n1382,サンライフ焼津,焼津市,34.874554,138.325089,,1,,0
n1382_0,サンライフ焼津,焼津市,34.873961,138.324501,,0,n1382,1
n1382_1,サンライフ焼津,焼津市,34.874278,138.324887,,0,n1382,1
n1383,当目大橋,焼津市,34.87801,138.327709,,1,,0
n1383_0,当目大橋,焼津市,34.87772,138.32736,,0,n1383,0
n1383_1,当目大橋,焼津市,34.87757,138.327382,,0,n1383,0
n1384,虚空蔵尊入口,焼津市,34.879473,138.329544,,1,,0
n1384_0,虚空蔵尊入口,焼津市,34.879093,138.328973,,0,n1384,1
n1384_1,虚空蔵尊入口,焼津市,34.87904,138.329048,,0,n1384,1
n1385,岡当目,焼津市,34.88204,138.323313,,1,,0
n1385_0,岡当目,焼津市,34.882032,138.32313,,0,n1385,1
n1385_1,岡当目,焼津市,34.88212,138.323366,,0,n1385,1
n1386,中里東,焼津市,34.883733,138.320883,,1,,0
n1386_0,中里東,焼津市,34.883835,138.320846,,0,n1386,1
n1386_1,中里東,焼津市,34.883844,138.320932,,0,n1386,1
n1387,東益津小学校前,焼津市,34.886918,138.321468,,1,,0
n1387_0,東益津小学校前,焼津市,34.886986,138.321425,,0,n1387,1
n1387_1,東益津小学校前,焼津市,34.887004,138.321511,,0,n1387,1
n1388,日本坂PA,焼津市,34.889217,138.321866,,1,,0
n1388_0,日本坂PA,焼津市,34.889461,138.321869,,0,n1388,1
n1388_1,日本坂PA,焼津市,34.889426,138.321944,,0,n1388,1
n1389,高草山石脇入口,焼津市,34.891837,138.322343,,1,,0
n1389_0,高草山石脇入口,焼津市,34.891677,138.322286,,0,n1389,0
n1389_1,高草山石脇入口,焼津市,34.891712,138.32235,,0,n1389,0
n1390,石脇上,焼津市,34.891987,138.32003,,1,,0
n1390_0,石脇上,焼津市,34.891957,138.32003,,0,n1390,0
n1390_1,石脇上,焼津市,34.89201,138.319966,,0,n1390,0
n1391,坂本団地,焼津市,34.890998,138.314736,,1,,0
n1391_0,坂本団地,焼津市,34.890976,138.314748,,0,n1391,0
n1391_1,坂本団地,焼津市,34.891011,138.314684,,0,n1391,0
n1392,林叟院入口,焼津市,34.892241,138.311597,,1,,0
n1392_0,林叟院入口,焼津市,34.892216,138.311529,,0,n1392,0
n1392_1,林叟院入口,焼津市,34.892269,138.31154,,0,n1392,1
n1393,坂本,焼津市,34.889852,138.310004,,1,,0
n1393_0,坂本,焼津市,34.890432,138.310247,,0,n1393,0
n1393_1,坂本,焼津市,34.890485,138.310193,,0,n1393,0
n1394,坂本南,焼津市,34.886074,138.308776,,1,,0
n1394_0,坂本南,焼津市,34.885819,138.308596,,0,n1394,1
n1394_1,坂本南,焼津市,34.885898,138.308575,,0,n1394,1
n1395,高草橋,焼津市,34.88347,138.306287,,1,,0
n1395_0,高草橋,焼津市,34.883403,138.306318,,0,n1395,0
n1395_1,高草橋,焼津市,34.883438,138.306275,,0,n1395,0
n1396,総合福祉会館,焼津市,34.87622,138.304484,,1,,0
n1396_0,総合福祉会館,焼津市,34.876043,138.304561,,0,n1396,1
n1397,大村公民館,焼津市,34.874414,138.300682,,1,,0
n1397_0,大村公民館,焼津市,34.874373,138.300813,,0,n1397,1
n1398,大覚寺,焼津市,34.87507,138.29979,,1,,0
n1398_0,大覚寺,焼津市,34.875073,138.299799,,0,n1398,1
n1399,さかなセンター,焼津市,34.878629,138.303266,,1,,0
n1399_0,さかなセンター,焼津市,34.878482,138.303222,,0,n1399,1
n1399_1,さかなセンター,焼津市,34.878605,138.303158,,0,n1399,1
n1400,牛田橋,焼津市,34.877761,138.311637,,1,,0
n1400_0,牛田橋,焼津市,34.877704,138.311777,,0,n1400,1
n1400_1,牛田橋,焼津市,34.877695,138.311595,,0,n1400,1
n1401,駅北三丁目,焼津市,34.87364,138.31479,,1,,0
n1401_0,駅北三丁目,焼津市,34.873548,138.315007,,0,n1401,0
n1401_1,駅北三丁目,焼津市,34.873645,138.314792,,0,n1401,0
n1402,大井川庁舎,焼津市,34.80401,138.28441,,1,,0
n1402_0,大井川庁舎,焼津市,34.804012,138.284413,,0,n1402,1
n1403,中学校前,焼津市,34.801447,138.281118,,1,,0
n1403_0,中学校前,焼津市,34.801435,138.280974,,0,n1403,1
n1403_1,中学校前,焼津市,34.801435,138.281103,,0,n1403,1
n1404,中島,焼津市,34.793787,138.275043,,1,,0
n1404_0,中島,焼津市,34.793691,138.274736,,0,n1404,0
n1404_1,中島,焼津市,34.793735,138.27494,,0,n1404,0
n1405,大井川体育館,焼津市,34.796073,138.271751,,1,,0
n1405_0,大井川体育館,焼津市,34.796114,138.271818,,0,n1405,1
n1405_1,大井川体育館,焼津市,34.796114,138.271689,,0,n1405,0
n1406,西島,焼津市,34.797467,138.267766,,1,,0
n1406_0,西島,焼津市,34.79766,138.267934,,0,n1406,1
n1406_1,西島,焼津市,34.797678,138.268084,,0,n1406,1
n1407,富士見橋,焼津市,34.801791,138.261992,,1,,0
n1407_0,富士見橋,焼津市,34.80185,138.262086,,0,n1407,1
n1407_1,富士見橋,焼津市,34.801832,138.261861,,0,n1407,1
n1408,相川,焼津市,34.804398,138.259666,,1,,0
n1408_0,相川,焼津市,34.804722,138.259538,,0,n1408,0
n1408_1,相川,焼津市,34.804616,138.25956,,0,n1408,0
n1409,相川上,焼津市,34.806855,138.256713,,1,,0
n1409_0,相川上,焼津市,34.806897,138.256706,,0,n1409,0
n1409_1,相川上,焼津市,34.806871,138.256599,,0,n1409,1
n1410,寺島,焼津市,34.809923,138.25964,,1,,0
n1410_0,寺島,焼津市,34.809685,138.259388,,0,n1410,0
n1410_1,寺島,焼津市,34.809826,138.25942,,0,n1410,1
n1411,上泉,焼津市,34.81418,138.25596,,1,,0
n1411_0,上泉,焼津市,34.81418,138.25596,,0,n1411,1
n1411_1,上泉,焼津市,34.81378,138.2566,,0,n1411,1
n1412,上泉上,焼津市,34.81957,138.2531,,1,,0
n1412_0,上泉上,焼津市,34.8199,138.25334,,0,n1412,1
n1412_1,上泉上,焼津市,34.81957,138.2531,,0,n1412,1
n1413,上新田北,焼津市,34.823774,138.257955,,1,,0
n1413_0,上新田北,焼津市,34.823937,138.25736,,0,n1413,1
n1413_1,上新田北,焼津市,34.824113,138.257253,,0,n1413,1
n1414,上新田中,焼津市,34.822164,138.262359,,1,,0
n1414_01,上新田中,焼津市,34.822017,138.262703,,0,n1414,1
n1414_11,上新田中,焼津市,34.822149,138.262714,,0,n1414,1
n1415,東名入口,焼津市,34.82048,138.267168,,1,,0
n1415_01,東名入口,焼津市,34.820467,138.267172,,0,n1415,1
n1415_11,東名入口,焼津市,34.820546,138.267419,,0,n1415,1
n1416,西小入口,焼津市,34.816671,138.26543,,1,,0
n1416_0,西小入口,焼津市,34.816604,138.265584,,0,n1416,1
n1416_1,西小入口,焼津市,34.816754,138.265552,,0,n1416,1
n1417,上新田西,焼津市,34.812777,138.271376,,1,,0
n1417_0,上新田西,焼津市,34.8129488,138.2710285,,0,n1417,1
n1417_1,上新田西,焼津市,34.812966,138.27127,,0,n1417,1
n1418,グランリバー前,焼津市,34.809568,138.276408,,1,,0
n1418_0,グランリバー前,焼津市,34.8096655,138.2762712,,0,n1418,0
n1418_1,グランリバー前,焼津市,34.80977,138.2763,,0,n1418,0
n1419,下江留中,焼津市,34.807347,138.279793,,1,,0
n1419_0,下江留中,焼津市,34.807533,138.279622,,0,n1419,1
n1419_1,下江留中,焼津市,34.80774,138.27945,,0,n1419,1
n1420,不動山入口,焼津市,34.789771,138.279113,,1,,0
n1420_0,不動山入口,焼津市,34.789766,138.279069,,0,n1420,1
n1421,利右衛門,焼津市,34.789052,138.287412,,1,,0
n1421_0,利右衛門,焼津市,34.788865,138.287436,,0,n1421,1
n1421_1,利右衛門,焼津市,34.789065,138.287687,,0,n1421,1
n1422,臨港工業団地前,焼津市,34.785628,138.292404,,1,,0
n1422_0,臨港工業団地前,焼津市,34.785596,138.292344,,0,n1422,0
n1422_1,臨港工業団地前,焼津市,34.78577,138.292535,,0,n1422,0
n1423,港湾会館前,焼津市,34.779832,138.297174,,1,,0
n1423_0,港湾会館前,焼津市,34.779951,138.297412,,0,n1423,1
n1423_1,港湾会館前,焼津市,34.780017,138.297161,,0,n1423,1
n1424,六軒屋,焼津市,34.786251,138.300546,,1,,0
n1424_0,六軒屋,焼津市,34.786646,138.301004,,0,n1424,1
n1424_1,六軒屋,焼津市,34.786751,138.30085,,0,n1424,1
n1425,宮島,焼津市,34.790501,138.304127,,1,,0
n1425_0,宮島,焼津市,34.790055,138.303967,,0,n1425,1
n1425_1,宮島,焼津市,34.790143,138.303748,,0,n1425,1
n1426,高新田防災センター前,焼津市,34.794151,138.307316,,1,,0
n1426_0,高新田防災センター前,焼津市,34.79401,138.307309,,0,n1426,1
n1426_1,高新田防災センター前,焼津市,34.794047,138.307225,,0,n1426,1
n1427,平松,焼津市,34.796974,138.309891,,1,,0
n1427_0,平松,焼津市,34.797009,138.310046,,0,n1427,0
n1427_1,平松,焼津市,34.79705,138.309889,,0,n1427,1
n1428,高新田平,焼津市,34.800473,138.312688,,1,,0
n1428_0,高新田平,焼津市,34.799746,138.312395,,0,n1428,0
n1428_1,高新田平,焼津市,34.799813,138.312246,,0,n1428,1
n1429,大井川寮・睦園前,焼津市,34.802287,138.312087,,1,,0
n1429_0,大井川寮・睦園前,焼津市,34.802366,138.312328,,0,n1429,1
n1429_1,大井川寮・睦園前,焼津市,34.802431,138.312199,,0,n1429,1
n1430,藤守防災センター前,焼津市,34.80786,138.31828,,1,,0
n1430_0,藤守防災センター前,焼津市,34.80756,138.3179,,0,n1430,1
n1430_1,藤守防災センター前,焼津市,34.80786,138.31828,,0,n1430,1
n1431,小杉浜,焼津市,34.812377,138.322375,,1,,0
n1431_0,小杉浜,焼津市,34.812317,138.322528,,0,n1431,0
n1431_1,小杉浜,焼津市,34.812409,138.32237,,0,n1431,1
n1432,一色浜,焼津市,34.815063,138.324508,,1,,0
n1432_0,一色浜,焼津市,34.815088,138.324761,,0,n1432,0
n1432_1,一色浜,焼津市,34.815027,138.324853,,0,n1432,1
n1433,木の子橋北,焼津市,34.82304,138.31125,,1,,0
n1433_0,木の子橋北,焼津市,34.8216485,138.3113354,,0,n1433,0
n1433_1,木の子橋北,焼津市,34.8242164,138.3112143,,0,n1433,0
n1434,一色上,焼津市,34.828156,138.310922,,1,,0
n1434_0,一色上,焼津市,34.828363,138.310731,,0,n1434,0
n1434_1,一色上,焼津市,34.828375,138.31085,,0,n1434,0
n1435,下小杉,焼津市,34.815094,138.315211,,1,,0
n1435_0,下小杉,焼津市,34.8143258,138.3148213,,0,n1435,0
n1435_1,下小杉,焼津市,34.8151401,138.3151999,,0,n1435,0
n1436,天満宮前,焼津市,34.812061,138.314426,,1,,0
n1436_0,天満宮前（焼津方面行き）,焼津市,34.8121716,138.3139366,,0,n1436,1
n1436_1,天満宮前（大井川方面行き）,焼津市,34.812081,138.314529,,0,n1436,1
n1437,藤守,焼津市,34.807252,138.306515,,1,,0
n1437_0,藤守,焼津市,34.807139,138.30651,,0,n1437,1
n1437_1,藤守,焼津市,34.807342,138.306574,,0,n1437,1
n1438,平松口,焼津市,34.803923,138.302926,,1,,0
n1438_0,平松口,焼津市,34.804333,138.303269,,0,n1438,1
n1438_1,平松口,焼津市,34.80443,138.303205,,0,n1438,0
n1439,鶴巻団地,焼津市,34.801083,138.301161,,1,,0
n1439_0,鶴巻団地,焼津市,34.801338,138.301424,,0,n1439,1
n1439_1,鶴巻団地,焼津市,34.801444,138.30137,,0,n1439,1
n1440,高新田,焼津市,34.798061,138.297964,,1,,0
n1440_0,高新田,焼津市,34.798065,138.298098,,0,n1440,0
n1440_1,高新田,焼津市,34.798206,138.298152,,0,n1440,0
n1441,上田中,焼津市,34.800192,138.292171,,1,,0
n1441_0,上田中,焼津市,34.800127,138.292041,,0,n1441,0
n1441_1,上田中,焼津市,34.80025,138.292127,,0,n1441,1
n1442,大井川福祉センター,焼津市,34.803516,138.290151,,1,,0
n1442_0,大井川福祉センター,焼津市,34.8034,138.290175,,0,n1442,1
n1443,中川原,焼津市,34.806844,138.286816,,1,,0
n1443_0,中川原,焼津市,34.806686,138.286811,,0,n1443,1
n1443_1,中川原,焼津市,34.8069767,138.286865,,0,n1443,1
n1591,つつじ平団地,焼津市,34.8161,138.249376,,1,,0
n1591_0,つつじ平団地,焼津市,34.81619,138.249507,,0,n1591,1
n30355,上島,焼津市,34.791833,138.291668,,1,,0
n30355_0,上島,焼津市,34.791833,138.291668,,0,n30355,0
n30365,東島,焼津市,34.788811,138.28499,,1,,0
n30365_0,東島,焼津市,34.788811,138.28499,,0,n30365,0
n30365_1,東島,焼津市,34.788898,138.284767,,0,n30365,0
n31650,まんさいかん前,焼津市,34.814785,138.281478,,1,,0
n31650_0,まんさいかん前,焼津市,34.814785,138.281478,,0,n31650,0
n31650_1,まんさいかん前,焼津市,34.814759,138.281736,,0,n31650,0
n31655,上小杉,焼津市,34.817163,138.282616,,1,,0
n31655_0,上小杉,焼津市,34.817163,138.282616,,0,n31655,0
n31655_1,上小杉,焼津市,34.817313,138.282616,,0,n31655,0
n31660,大島中央公園,焼津市,34.82192,138.289482,,1,,0
n31660_0,大島中央公園,焼津市,34.82192,138.289482,,0,n31660,0
n31660_1,大島中央公園,焼津市,34.821832,138.28945,,0,n31660,0
n31665,大島下,焼津市,34.820106,138.29563,,1,,0
n31665_0,大島下,焼津市,34.820106,138.29563,,0,n31665,0
n31665_1,大島下,焼津市,34.819991,138.295662,,0,n31665,0
n31670,大島萩の森,焼津市,34.820713,138.301729,,1,,1
n31670_0,大島萩の森,焼津市,34.820713,138.301729,,0,n31670,1
n31670_1,大島萩の森,焼津市,34.820863,138.301826,,0,n31670,1
n31675,三和ちびっこ広場前,焼津市,34.824254,138.301756,,1,,0
n31675_0,三和ちびっこ広場前,焼津市,34.824254,138.301756,,0,n31675,0
n31675_1,三和ちびっこ広場前,焼津市,34.824439,138.301842,,0,n31675,0
n31680,石津西公園前,焼津市,34.84301,138.313303,,1,,1
n31680_0,石津西公園前,焼津市,34.84301,138.313303,,0,n31680,0
n31680_1,石津西公園前,焼津市,34.842873,138.313362,,0,n31680,0
n31685,小川港南,焼津市,34.843951,138.325636,,1,,0
n31685_0,小川港南,焼津市,34.843951,138.325636,,0,n31685,0
n31685_1,小川港南,焼津市,34.84369,138.325805,,0,n31685,0
n31690,信香院,焼津市,34.849102,138.32367,,1,,0
n31690_0,信香院,焼津市,34.849102,138.32367,,0,n31690,0
n31690_1,信香院,焼津市,34.849365,138.323795,,0,n31690,0
n31695,アクアスやいづ入口,焼津市,34.857169,138.324348,,1,,0
n31695_0,アクアスやいづ入口,焼津市,34.857169,138.324348,,0,n31695,0
n31695_1,アクアスやいづ入口,焼津市,34.857232,138.324573,,0,n31695,0
n31700,城之腰,焼津市,34.861861,138.324504,,1,,0
n31700_0,城之腰,焼津市,34.861861,138.324504,,0,n31700,0
n31700_1,城之腰,焼津市,34.861974,138.324806,,0,n31700,0
n31705,市役所北,焼津市,34.86761,138.323652,,1,,1
n31705_0,市役所北,焼津市,34.86761,138.323652,,0,n31705,1
n31705_1,市役所北,焼津市,34.867669,138.323781,,0,n31705,1
n3201,吉永辻,焼津市,34.796425,138.296283,,1,,0
n3201_0,吉永辻,焼津市,34.796448,138.296059,,0,n3201,1
n3201_1,吉永辻,焼津市,34.796704,138.295952,,0,n3201,1
n3202,吉永,焼津市,34.793775,138.295607,,1,,0
n3202_0,吉永,焼津市,34.793898,138.29585,,0,n3202,0
n3207,飯淵,焼津市,34.787729,138.281726,,1,,0
n3207_0,飯淵,焼津市,34.78759,138.281382,,0,n3207,1
n3207_1,飯淵,焼津市,34.787575,138.281444,,0,n3207,1
n3221,焼津駅前,焼津市,34.871754,138.318569,,1,,0
n3221_1,焼津駅前（１番のりば）,焼津市,34.871943,138.318662,,0,n3221,1
n3221_4,焼津駅前（４番のりば）,焼津市,34.871732,138.31828,,0,n3221,1
n3263,焼津市立病院前,焼津市,34.837552,138.30714,,1,,0
n3263_4,焼津市立病院前（４番のりば）,焼津市,34.8375404,138.306822,,0,n3263,1
n3263_5,焼津市立病院前（５番のりば）,焼津市,34.837541,138.306776,,0,n3263,1
n3263_6,焼津市立病院前（６番のりば）,焼津市,34.8375408,138.3067214,,0,n3263,1
n3272,大富小学校前,焼津市,34.833817,138.29544,,1,,0
n3272_0,大富小学校前,焼津市,34.834318,138.295854,,0,n3272,1
n3272_1,大富小学校前,焼津市,34.834463,138.295854,,0,n3272,0
n3273,大富,焼津市,34.837335,138.296611,,1,,0
n3273_0,大富,焼津市,34.8370001,138.2965294,,0,n3273,1
n3273_1,大富,焼津市,34.8370838,138.2973424,,0,n3273,1
n3281,西焼津駅南口,焼津市,34.859568,138.285764,,1,,0
n3281_0,西焼津駅南口,焼津市,34.859575,138.28556,,0,n3281,1
n3281_1,西焼津駅南口,焼津市,34.85955,138.28556,,0,n3281,1
n3311,水産加工センター,焼津市,34.817604,138.322122,,1,,0
n3311_0,水産加工センター,焼津市,34.817453,138.321935,,0,n3311,1
n3311_1,水産加工センター,焼津市,34.817485,138.321944,,0,n3311,1
